[{"city": "Sparr", "long": -82.10751700717576, "account_id": 0, "cvv": "178", "expiration_date": "3/2022", "trxn_std": 10, "city_alias": "Sparr", "card_type": "Diners", "state": "FL", "transaction_radius": 34, "account_number": "30097361644701", "lat": 29.343570387188443, "trxn_mean": 34}, {"city": "Key Colony Beach", "long": -81.0237429317303, "account_id": 1, "cvv": "189", "expiration_date": "4/2022", "trxn_std": 3, "city_alias": "Key Colony Beach", "card_type": "Diners", "state": "FL", "transaction_radius": 8, "account_number": "38160523171583", "lat": 24.716132193921457, "trxn_mean": 40}, {"city": "Thomaston", "long": -84.33159470348122, "account_id": 2, "cvv": "282", "expiration_date": "5/2022", "trxn_std": 7, "city_alias": "Thomaston", "card_type": "Discover", "state": "GA", "transaction_radius": 37, "account_number": "6011798561566020", "lat": 32.89320809237824, "trxn_mean": 19}, {"city": "Pulaski", "long": -83.45940840156265, "account_id": 3, "cvv": "088", "expiration_date": "8/2024", "trxn_std": 7, "city_alias": "Pulaski", "card_type": "MasterCard", "state": "GA", "transaction_radius": 24, "account_number": "5184236095609753", "lat": 32.22760495971293, "trxn_mean": 26}, {"city": "Zolfo Springs", "long": -81.79092060537918, "account_id": 4, "cvv": "923", "expiration_date": "6/2023", "trxn_std": 3, "city_alias": "Zolfo Springs", "card_type": "Discover", "state": "FL", "transaction_radius": 12, "account_number": "6011967351681550", "lat": 27.48815238775189, "trxn_mean": 8}, {"city": "Shady Grove", "long": -83.63678954351384, "account_id": 5, "cvv": "482", "expiration_date": "5/2021", "trxn_std": 6, "city_alias": "Shady Grove", "card_type": "Discover", "state": "FL", "transaction_radius": 6, "account_number": "6011384646200966", "lat": 30.28307116606991, "trxn_mean": 13}, {"city": "Big Pine Key", "long": -81.32111777438719, "account_id": 6, "cvv": "335", "expiration_date": "1/2021", "trxn_std": 8, "city_alias": "No Name Key", "card_type": "Diners", "state": "FL", "transaction_radius": 29, "account_number": "30203852474646", "lat": 24.692668772141012, "trxn_mean": 25}, {"city": "Boynton Beach", "long": -80.11161158686004, "account_id": 7, "cvv": "131", "expiration_date": "5/2023", "trxn_std": 4, "city_alias": "Vlg Of Golf", "card_type": "Amex", "state": "FL", "transaction_radius": 27, "account_number": "347749716053289", "lat": 26.507517070804933, "trxn_mean": 12}, {"city": "Nicholls", "long": -82.62980453841654, "account_id": 8, "cvv": "142", "expiration_date": "7/2024", "trxn_std": 1, "city_alias": "Wilsonville", "card_type": "Diners", "state": "GA", "transaction_radius": 23, "account_number": "30019297707204", "lat": 31.512501445084567, "trxn_mean": 4}, {"city": "Jennings", "long": -83.09273438091931, "account_id": 9, "cvv": "161", "expiration_date": "1/2024", "trxn_std": 18, "city_alias": "Jennings", "card_type": "Discover", "state": "FL", "transaction_radius": 17, "account_number": "6011835448581929", "lat": 30.609107116311236, "trxn_mean": 39}, {"city": "Hawthorne", "long": -82.09243189903817, "account_id": 10, "cvv": "007", "expiration_date": "11/2024", "trxn_std": 1, "city_alias": "Hawthorne", "card_type": "Amex", "state": "FL", "transaction_radius": 37, "account_number": "340256120659443", "lat": 29.58688901603343, "trxn_mean": 6}, {"city": "Allenhurst", "long": -81.60275984400462, "account_id": 11, "cvv": "094", "expiration_date": "5/2024", "trxn_std": 5, "city_alias": "Allenhurst", "card_type": "Diners", "state": "GA", "transaction_radius": 13, "account_number": "38838149435843", "lat": 31.7890762539314, "trxn_mean": 18}, {"city": "Locust Grove", "long": -84.11404555797, "account_id": 12, "cvv": "959", "expiration_date": "9/2021", "trxn_std": 6, "city_alias": "Locust Grove", "card_type": "Visa", "state": "GA", "transaction_radius": 31, "account_number": "4929166628969031", "lat": 33.34089585521758, "trxn_mean": 32}, {"city": "Oneco", "long": -82.55123008098505, "account_id": 13, "cvv": "729", "expiration_date": "11/2019", "trxn_std": 5, "city_alias": "Oneco", "card_type": "MasterCard", "state": "FL", "transaction_radius": 35, "account_number": "2283430757691673", "lat": 27.452670885330885, "trxn_mean": 13}, {"city": "Fort Lauderdale", "long": -80.25157930602937, "account_id": 14, "cvv": "915", "expiration_date": "9/2020", "trxn_std": 1, "city_alias": "City Of Sunrise", "card_type": "MasterCard", "state": "FL", "transaction_radius": 22, "account_number": "5512758195567402", "lat": 26.17201764013653, "trxn_mean": 1}, {"city": "Copeland", "long": -81.35074815439997, "account_id": 15, "cvv": "301", "expiration_date": "4/2022", "trxn_std": 1, "city_alias": "Copeland", "card_type": "Visa", "state": "FL", "transaction_radius": 5, "account_number": "4539979809136796", "lat": 25.958656410949505, "trxn_mean": 1}, {"city": "Bostwick", "long": -83.50939869810307, "account_id": 16, "cvv": "859", "expiration_date": "8/2024", "trxn_std": 6, "city_alias": "Bostwick", "card_type": "Visa", "state": "GA", "transaction_radius": 33, "account_number": "4556649435498070", "lat": 33.74245684446191, "trxn_mean": 14}, {"city": "Tallahassee", "long": -84.28244532629846, "account_id": 17, "cvv": "014", "expiration_date": "1/2024", "trxn_std": 7, "city_alias": "Florida A And M University", "card_type": "Visa", "state": "FL", "transaction_radius": 21, "account_number": "4539734446911931", "lat": 30.416482789967674, "trxn_mean": 35}, {"city": "Washington", "long": -82.74436135140058, "account_id": 18, "cvv": "421", "expiration_date": "10/2022", "trxn_std": 16, "city_alias": "Washington", "card_type": "Diners", "state": "GA", "transaction_radius": 8, "account_number": "30165358989155", "lat": 33.74180959634541, "trxn_mean": 37}, {"city": "Wacissa", "long": -83.99210395279331, "account_id": 19, "cvv": "772", "expiration_date": "3/2021", "trxn_std": 1, "city_alias": "Wacissa", "card_type": "Visa", "state": "FL", "transaction_radius": 18, "account_number": "4556069087856188", "lat": 30.363617801981274, "trxn_mean": 29}, {"city": "Melbourne", "long": -80.60329918915902, "account_id": 20, "cvv": "297", "expiration_date": "3/2024", "trxn_std": 7, "city_alias": "Melbourne", "card_type": "Diners", "state": "FL", "transaction_radius": 17, "account_number": "30130203058275", "lat": 28.088659393608324, "trxn_mean": 23}, {"city": "Miami", "long": -80.18678461447469, "account_id": 21, "cvv": "375", "expiration_date": "10/2022", "trxn_std": 2, "city_alias": "Mia Shrs", "card_type": "Discover", "state": "FL", "transaction_radius": 15, "account_number": "6011114039894178", "lat": 25.766742365091158, "trxn_mean": 8}, {"city": "Blakely", "long": -84.93903581007463, "account_id": 22, "cvv": "816", "expiration_date": "10/2021", "trxn_std": 12, "city_alias": "Blakely", "card_type": "Discover", "state": "GA", "transaction_radius": 16, "account_number": "6011007541919550", "lat": 31.3826570218217, "trxn_mean": 27}, {"city": "Mossy Head", "long": -86.12017408463358, "account_id": 23, "cvv": "363", "expiration_date": "1/2021", "trxn_std": 3, "city_alias": "Defuniak Springs", "card_type": "Visa", "state": "FL", "transaction_radius": 5, "account_number": "4929977881743396", "lat": 30.726048960936076, "trxn_mean": 30}, {"city": "Orlando", "long": -81.44748447132156, "account_id": 24, "cvv": "310", "expiration_date": "1/2024", "trxn_std": 1, "city_alias": "Lockhart", "card_type": "Diners", "state": "FL", "transaction_radius": 16, "account_number": "38792955213119", "lat": 28.61454396395963, "trxn_mean": 36}, {"city": "Mount Airy", "long": -83.49589556776644, "account_id": 25, "cvv": "895", "expiration_date": "1/2020", "trxn_std": 14, "city_alias": "Mount Airy", "card_type": "Visa", "state": "GA", "transaction_radius": 36, "account_number": "4929670192433944", "lat": 34.52379320794285, "trxn_mean": 31}, {"city": "Miami Beach", "long": -80.14904540835983, "account_id": 26, "cvv": "395", "expiration_date": "12/2020", "trxn_std": 2, "city_alias": "North Bay Vlg", "card_type": "Visa", "state": "FL", "transaction_radius": 8, "account_number": "4018044493120174", "lat": 25.841163527730988, "trxn_mean": 18}, {"city": "La Fayette", "long": -85.28689384668571, "account_id": 27, "cvv": "351", "expiration_date": "8/2023", "trxn_std": 9, "city_alias": "La Fayette", "card_type": "Discover", "state": "GA", "transaction_radius": 6, "account_number": "6011293337121722", "lat": 34.70975864604616, "trxn_mean": 20}, {"city": "Harlem", "long": -82.30733787652731, "account_id": 28, "cvv": "254", "expiration_date": "1/2019", "trxn_std": 2, "city_alias": "Campania", "card_type": "MasterCard", "state": "GA", "transaction_radius": 36, "account_number": "2282335605588776", "lat": 33.409768435732325, "trxn_mean": 8}, {"city": "Jacksonville", "long": -82.98382245531867, "account_id": 29, "cvv": "632", "expiration_date": "10/2020", "trxn_std": 8, "city_alias": "Jacksonville", "card_type": "Discover", "state": "GA", "transaction_radius": 18, "account_number": "6011239486682766", "lat": 31.807698114219097, "trxn_mean": 25}, {"city": "Eton", "long": -84.76835976103904, "account_id": 30, "cvv": "515", "expiration_date": "8/2024", "trxn_std": 2, "city_alias": "Eton", "card_type": "Discover", "state": "GA", "transaction_radius": 19, "account_number": "6011801429172971", "lat": 34.83020744002934, "trxn_mean": 3}, {"city": "Atlanta", "long": -84.37834009049291, "account_id": 31, "cvv": "229", "expiration_date": "4/2021", "trxn_std": 11, "city_alias": "Sandy Spgs", "card_type": "Diners", "state": "GA", "transaction_radius": 9, "account_number": "30061212088799", "lat": 33.92550864208307, "trxn_mean": 38}, {"city": "Ocilla", "long": -83.24529133537044, "account_id": 32, "cvv": "374", "expiration_date": "7/2021", "trxn_std": 2, "city_alias": "Ocilla", "card_type": "Diners", "state": "GA", "transaction_radius": 7, "account_number": "38311814640378", "lat": 31.58933155676212, "trxn_mean": 22}, {"city": "Reddick", "long": -82.20223497883555, "account_id": 33, "cvv": "286", "expiration_date": "8/2024", "trxn_std": 12, "city_alias": "Flemington", "card_type": "MasterCard", "state": "FL", "transaction_radius": 19, "account_number": "5224199645567511", "lat": 29.361650462623942, "trxn_mean": 38}, {"city": "Key Colony Beach", "long": -81.0237093848705, "account_id": 34, "cvv": "328", "expiration_date": "7/2022", "trxn_std": 1, "city_alias": "Key Colony Beach", "card_type": "Visa", "state": "FL", "transaction_radius": 16, "account_number": "4486637902968555", "lat": 24.72598276411268, "trxn_mean": 1}, {"city": "Grand Island", "long": -81.73381027540155, "account_id": 35, "cvv": "666", "expiration_date": "10/2019", "trxn_std": 5, "city_alias": "Grand Island", "card_type": "Visa", "state": "FL", "transaction_radius": 12, "account_number": "4556563435270670", "lat": 28.88755206229473, "trxn_mean": 17}, {"city": "Evinston", "long": -82.23630840400769, "account_id": 36, "cvv": "043", "expiration_date": "11/2020", "trxn_std": 1, "city_alias": "Evinston", "card_type": "Amex", "state": "FL", "transaction_radius": 15, "account_number": "345548725838140", "lat": 29.491993052007267, "trxn_mean": 10}, {"city": "North Miami Beach", "long": -80.1343182193878, "account_id": 37, "cvv": "664", "expiration_date": "10/2023", "trxn_std": 7, "city_alias": "Aventura", "card_type": "MasterCard", "state": "FL", "transaction_radius": 11, "account_number": "2250665464292872", "lat": 25.95158418425434, "trxn_mean": 31}, {"city": "Tampa", "long": -82.46219995385152, "account_id": 38, "cvv": "905", "expiration_date": "1/2019", "trxn_std": 8, "city_alias": "Business Reply", "card_type": "Amex", "state": "FL", "transaction_radius": 15, "account_number": "340231833305477", "lat": 27.955538292910813, "trxn_mean": 19}, {"city": "Grantville", "long": -84.830587850286, "account_id": 39, "cvv": "976", "expiration_date": "9/2020", "trxn_std": 2, "city_alias": "Grantville", "card_type": "MasterCard", "state": "GA", "transaction_radius": 5, "account_number": "2228445579640011", "lat": 33.239774405118006, "trxn_mean": 16}, {"city": "Pompano Beach", "long": -80.11982904989931, "account_id": 40, "cvv": "316", "expiration_date": "4/2024", "trxn_std": 6, "city_alias": "Pompano Beach", "card_type": "MasterCard", "state": "FL", "transaction_radius": 28, "account_number": "2223550948252797", "lat": 26.23281160533289, "trxn_mean": 13}, {"city": "Daytona Beach", "long": -80.98631191989759, "account_id": 41, "cvv": "134", "expiration_date": "9/2019", "trxn_std": 18, "city_alias": "Dayt Bch Sh", "card_type": "Amex", "state": "FL", "transaction_radius": 23, "account_number": "374312413940872", "lat": 29.197502735120075, "trxn_mean": 39}, {"city": "Cobb", "long": -84.55923340538322, "account_id": 42, "cvv": "643", "expiration_date": "7/2023", "trxn_std": 17, "city_alias": "Cobb", "card_type": "Discover", "state": "GA", "transaction_radius": 17, "account_number": "6011241672629940", "lat": 33.90506690990918, "trxn_mean": 33}, {"city": "Hillsboro", "long": -83.63609278840867, "account_id": 43, "cvv": "272", "expiration_date": "1/2023", "trxn_std": 2, "city_alias": "Hillsboro", "card_type": "Visa", "state": "GA", "transaction_radius": 24, "account_number": "4716257701594866", "lat": 33.18470637488211, "trxn_mean": 37}, {"city": "Mayo", "long": -83.16982501255333, "account_id": 44, "cvv": "097", "expiration_date": "6/2019", "trxn_std": 10, "city_alias": "Mayo", "card_type": "Diners", "state": "FL", "transaction_radius": 31, "account_number": "30096755551910", "lat": 30.057977910733225, "trxn_mean": 32}, {"city": "Osteen", "long": -81.15764153452866, "account_id": 45, "cvv": "843", "expiration_date": "9/2019", "trxn_std": 13, "city_alias": "Osteen", "card_type": "Visa", "state": "FL", "transaction_radius": 8, "account_number": "4716869970783911", "lat": 28.841047291442464, "trxn_mean": 32}, {"city": "Sarasota", "long": -82.53535919025018, "account_id": 46, "cvv": "105", "expiration_date": "5/2019", "trxn_std": 14, "city_alias": "Crescent Beach", "card_type": "Amex", "state": "FL", "transaction_radius": 31, "account_number": "371210901319604", "lat": 27.26064138875859, "trxn_mean": 30}, {"city": "De Soto", "long": -84.06661064855327, "account_id": 47, "cvv": "788", "expiration_date": "1/2022", "trxn_std": 8, "city_alias": "De Soto", "card_type": "Discover", "state": "GA", "transaction_radius": 18, "account_number": "6011392572786791", "lat": 31.95865589277678, "trxn_mean": 19}, {"city": "Kathleen", "long": -82.01792927204617, "account_id": 48, "cvv": "193", "expiration_date": "12/2021", "trxn_std": 1, "city_alias": "Kathleen", "card_type": "MasterCard", "state": "FL", "transaction_radius": 39, "account_number": "2228830065171474", "lat": 28.11592191519442, "trxn_mean": 36}, {"city": "Nicholls", "long": -82.62978824728185, "account_id": 49, "cvv": "018", "expiration_date": "5/2024", "trxn_std": 2, "city_alias": "Beach", "card_type": "Discover", "state": "GA", "transaction_radius": 7, "account_number": "6011188212362146", "lat": 31.5124015050268, "trxn_mean": 15}, {"city": "Dalton", "long": -84.96525730444206, "account_id": 50, "cvv": "006", "expiration_date": "10/2019", "trxn_std": 14, "city_alias": "Dalton", "card_type": "Amex", "state": "GA", "transaction_radius": 38, "account_number": "377915626231355", "lat": 34.764865170956405, "trxn_mean": 35}, {"city": "Land O Lakes", "long": -82.45253579842893, "account_id": 51, "cvv": "179", "expiration_date": "7/2021", "trxn_std": 2, "city_alias": "Land O' Lakes", "card_type": "Diners", "state": "FL", "transaction_radius": 25, "account_number": "30279196371151", "lat": 28.223887408327137, "trxn_mean": 12}, {"city": "Ranger", "long": -84.70450348013162, "account_id": 52, "cvv": "504", "expiration_date": "12/2024", "trxn_std": 3, "city_alias": "Ranger", "card_type": "Visa", "state": "GA", "transaction_radius": 24, "account_number": "4716879910810963", "lat": 34.496475095619424, "trxn_mean": 5}, {"city": "Port Orange", "long": -81.00049169038036, "account_id": 53, "cvv": "617", "expiration_date": "11/2023", "trxn_std": 3, "city_alias": "Daytona Beach", "card_type": "Amex", "state": "FL", "transaction_radius": 18, "account_number": "344225931350746", "lat": 29.143314675127336, "trxn_mean": 23}, {"city": "Orlando", "long": -81.24040337224399, "account_id": 54, "cvv": "663", "expiration_date": "3/2023", "trxn_std": 2, "city_alias": "Union Park", "card_type": "Discover", "state": "FL", "transaction_radius": 40, "account_number": "6011541861938576", "lat": 28.565391158452368, "trxn_mean": 4}, {"city": "Summerville", "long": -85.35273503845049, "account_id": 55, "cvv": "140", "expiration_date": "11/2019", "trxn_std": 1, "city_alias": "Summerville", "card_type": "Amex", "state": "GA", "transaction_radius": 22, "account_number": "373070396370340", "lat": 34.485811078488354, "trxn_mean": 1}, {"city": "Saint Simons Island", "long": -81.38371002837165, "account_id": 56, "cvv": "854", "expiration_date": "3/2022", "trxn_std": 11, "city_alias": "St Simons Island", "card_type": "Discover", "state": "GA", "transaction_radius": 7, "account_number": "6011358299391439", "lat": 31.15454564934862, "trxn_mean": 31}, {"city": "Daisy", "long": -81.82953479424668, "account_id": 57, "cvv": "432", "expiration_date": "1/2022", "trxn_std": 1, "city_alias": "Daisy", "card_type": "Discover", "state": "GA", "transaction_radius": 2, "account_number": "6011899223493999", "lat": 32.14677560334234, "trxn_mean": 10}, {"city": "Fort Lauderdale", "long": -80.33199179335561, "account_id": 58, "cvv": "498", "expiration_date": "2/2024", "trxn_std": 19, "city_alias": "Southwest Ranches", "card_type": "Amex", "state": "FL", "transaction_radius": 28, "account_number": "340652872335663", "lat": 26.05378584936607, "trxn_mean": 38}, {"city": "Lebanon", "long": -84.50453441024399, "account_id": 59, "cvv": "969", "expiration_date": "12/2019", "trxn_std": 2, "city_alias": "Lebanon", "card_type": "Visa", "state": "GA", "transaction_radius": 26, "account_number": "4532443667949615", "lat": 34.13786706531849, "trxn_mean": 40}, {"city": "Okeechobee", "long": -81.0113940967554, "account_id": 60, "cvv": "477", "expiration_date": "9/2022", "trxn_std": 6, "city_alias": "Basinger", "card_type": "MasterCard", "state": "FL", "transaction_radius": 39, "account_number": "2224390041403958", "lat": 27.395399350134372, "trxn_mean": 17}, {"city": "Miami", "long": -80.18782865416918, "account_id": 61, "cvv": "911", "expiration_date": "1/2022", "trxn_std": 2, "city_alias": "El Portal", "card_type": "Amex", "state": "FL", "transaction_radius": 13, "account_number": "370800921473208", "lat": 25.86043945096416, "trxn_mean": 5}, {"city": "Swainsboro", "long": -82.32874119102146, "account_id": 62, "cvv": "561", "expiration_date": "4/2020", "trxn_std": 1, "city_alias": "Swainsboro", "card_type": "Diners", "state": "GA", "transaction_radius": 7, "account_number": "30018273498937", "lat": 32.59240844726264, "trxn_mean": 6}, {"city": "Summerland Key", "long": -81.44987763269856, "account_id": 63, "cvv": "306", "expiration_date": "8/2022", "trxn_std": 6, "city_alias": "Middle Torch Key", "card_type": "Discover", "state": "FL", "transaction_radius": 5, "account_number": "6011421701228647", "lat": 24.656442454634792, "trxn_mean": 40}, {"city": "Cape Coral", "long": -82.0658244991179, "account_id": 64, "cvv": "438", "expiration_date": "3/2023", "trxn_std": 2, "city_alias": "Matlacha", "card_type": "Diners", "state": "FL", "transaction_radius": 10, "account_number": "30321488856257", "lat": 26.624785959098933, "trxn_mean": 17}, {"city": "Eastpoint", "long": -84.89297182132472, "account_id": 65, "cvv": "802", "expiration_date": "11/2024", "trxn_std": 1, "city_alias": "Eastpoint", "card_type": "Amex", "state": "FL", "transaction_radius": 34, "account_number": "376212064451955", "lat": 29.741217074866388, "trxn_mean": 1}, {"city": "Orlando", "long": -80.6558249544807, "account_id": 66, "cvv": "450", "expiration_date": "1/2019", "trxn_std": 10, "city_alias": "Kennedy Space Center", "card_type": "Visa", "state": "FL", "transaction_radius": 19, "account_number": "4486653854780187", "lat": 28.59057499813501, "trxn_mean": 40}, {"city": "Decatur", "long": -84.1916397250683, "account_id": 67, "cvv": "364", "expiration_date": "2/2022", "trxn_std": 2, "city_alias": "Snapfinger", "card_type": "MasterCard", "state": "GA", "transaction_radius": 23, "account_number": "2712414778978658", "lat": 33.65987623561584, "trxn_mean": 40}, {"city": "Norman Park", "long": -83.69202515761447, "account_id": 68, "cvv": "174", "expiration_date": "4/2023", "trxn_std": 7, "city_alias": "Norman Park", "card_type": "Discover", "state": "GA", "transaction_radius": 4, "account_number": "6011675791849394", "lat": 31.274110680721414, "trxn_mean": 29}, {"city": "Orlando", "long": -81.53366961683666, "account_id": 69, "cvv": "491", "expiration_date": "3/2021", "trxn_std": 2, "city_alias": "Lake Buena Vista", "card_type": "Discover", "state": "FL", "transaction_radius": 38, "account_number": "6011427754952645", "lat": 28.398432578158022, "trxn_mean": 9}, {"city": "Fort Oglethorpe", "long": -85.2619912781805, "account_id": 70, "cvv": "435", "expiration_date": "2/2021", "trxn_std": 3, "city_alias": "Fort Oglethorpe", "card_type": "Diners", "state": "GA", "transaction_radius": 23, "account_number": "36723243963787", "lat": 34.95424875168117, "trxn_mean": 5}, {"city": "Orlando", "long": -81.37408663010936, "account_id": 71, "cvv": "000", "expiration_date": "10/2021", "trxn_std": 1, "city_alias": "Orlando", "card_type": "Amex", "state": "FL", "transaction_radius": 35, "account_number": "346109917720775", "lat": 28.53345556928856, "trxn_mean": 1}, {"city": "Douglasville", "long": -84.74282849085206, "account_id": 72, "cvv": "830", "expiration_date": "8/2019", "trxn_std": 2, "city_alias": "Douglasville", "card_type": "Amex", "state": "GA", "transaction_radius": 19, "account_number": "375124667912419", "lat": 33.746589435868245, "trxn_mean": 6}, {"city": "Norman Park", "long": -83.6821431988971, "account_id": 73, "cvv": "994", "expiration_date": "7/2020", "trxn_std": 1, "city_alias": "Norman Park", "card_type": "Diners", "state": "GA", "transaction_radius": 30, "account_number": "30036934056902", "lat": 31.264136358925658, "trxn_mean": 5}, {"city": "Fort Lauderdale", "long": -80.33349553006164, "account_id": 74, "cvv": "756", "expiration_date": "7/2023", "trxn_std": 2, "city_alias": "American Express", "card_type": "Discover", "state": "FL", "transaction_radius": 26, "account_number": "6011024433916362", "lat": 26.135844451678743, "trxn_mean": 19}, {"city": "Swainsboro", "long": -82.32336325775417, "account_id": 75, "cvv": "565", "expiration_date": "10/2024", "trxn_std": 1, "city_alias": "Blun", "card_type": "MasterCard", "state": "GA", "transaction_radius": 12, "account_number": "2236013980805761", "lat": 32.70482773512396, "trxn_mean": 24}, {"city": "Jewell", "long": -82.77225712307526, "account_id": 76, "cvv": "094", "expiration_date": "6/2024", "trxn_std": 7, "city_alias": "Jewell", "card_type": "MasterCard", "state": "GA", "transaction_radius": 35, "account_number": "2251131579532545", "lat": 33.29086967604136, "trxn_mean": 33}, {"city": "Jacksonville", "long": -81.4133465553194, "account_id": 77, "cvv": "940", "expiration_date": "5/2020", "trxn_std": 1, "city_alias": "Mayport Navy", "card_type": "Diners", "state": "FL", "transaction_radius": 15, "account_number": "38585426529018", "lat": 30.38316867618013, "trxn_mean": 3}, {"city": "Port Saint Lucie", "long": -80.3533566502038, "account_id": 78, "cvv": "379", "expiration_date": "2/2024", "trxn_std": 8, "city_alias": "Port Saint Lucie", "card_type": "Diners", "state": "FL", "transaction_radius": 23, "account_number": "38421631155920", "lat": 27.268187930813806, "trxn_mean": 26}, {"city": "Buckhead", "long": -84.41169994615049, "account_id": 79, "cvv": "136", "expiration_date": "10/2020", "trxn_std": 1, "city_alias": "Buckhead", "card_type": "MasterCard", "state": "GA", "transaction_radius": 3, "account_number": "5408904729493759", "lat": 33.84218200840605, "trxn_mean": 1}, {"city": "Colbert", "long": -83.217645250053, "account_id": 80, "cvv": "254", "expiration_date": "3/2022", "trxn_std": 4, "city_alias": "Colbert", "card_type": "Diners", "state": "GA", "transaction_radius": 31, "account_number": "38714651111827", "lat": 34.032952244369504, "trxn_mean": 10}, {"city": "Winter Beach", "long": -80.4256807386345, "account_id": 81, "cvv": "753", "expiration_date": "9/2019", "trxn_std": 13, "city_alias": "Winter Beach", "card_type": "Amex", "state": "FL", "transaction_radius": 24, "account_number": "348217312072631", "lat": 27.724089445954895, "trxn_mean": 26}, {"city": "Warrenton", "long": -82.66699733833075, "account_id": 82, "cvv": "795", "expiration_date": "5/2019", "trxn_std": 1, "city_alias": "Warrenton", "card_type": "Visa", "state": "GA", "transaction_radius": 9, "account_number": "4556348865438512", "lat": 33.402058329624964, "trxn_mean": 23}, {"city": "Everglades City", "long": -81.38892900914742, "account_id": 83, "cvv": "594", "expiration_date": "5/2021", "trxn_std": 5, "city_alias": "Everglades", "card_type": "Diners", "state": "FL", "transaction_radius": 16, "account_number": "30061743248755", "lat": 25.865751905820176, "trxn_mean": 18}, {"city": "Rex", "long": -84.27352922290038, "account_id": 84, "cvv": "237", "expiration_date": "8/2023", "trxn_std": 2, "city_alias": "Rex", "card_type": "Diners", "state": "GA", "transaction_radius": 13, "account_number": "30392323237482", "lat": 33.58626001084765, "trxn_mean": 32}, {"city": "Rutledge", "long": -83.60721829917406, "account_id": 85, "cvv": "760", "expiration_date": "8/2024", "trxn_std": 2, "city_alias": "Rutledge", "card_type": "Discover", "state": "GA", "transaction_radius": 16, "account_number": "6011795460748295", "lat": 33.62093042181119, "trxn_mean": 8}, {"city": "Powder Springs", "long": -84.66215278006108, "account_id": 86, "cvv": "107", "expiration_date": "1/2023", "trxn_std": 7, "city_alias": "Powder Spgs", "card_type": "Visa", "state": "GA", "transaction_radius": 20, "account_number": "4916968579618466", "lat": 33.86477818011839, "trxn_mean": 21}, {"city": "Panama City", "long": -85.61261441690894, "account_id": 87, "cvv": "211", "expiration_date": "1/2020", "trxn_std": 18, "city_alias": "Tyndall AFB", "card_type": "Amex", "state": "FL", "transaction_radius": 16, "account_number": "341297256980434", "lat": 30.07489508337398, "trxn_mean": 35}, {"city": "Williston", "long": -82.44177282575309, "account_id": 88, "cvv": "854", "expiration_date": "11/2021", "trxn_std": 3, "city_alias": "Williston", "card_type": "Amex", "state": "FL", "transaction_radius": 20, "account_number": "378093271907999", "lat": 29.3823481839194, "trxn_mean": 24}, {"city": "Navarre", "long": -86.91726562304542, "account_id": 89, "cvv": "515", "expiration_date": "8/2022", "trxn_std": 2, "city_alias": "Navarre", "card_type": "Discover", "state": "FL", "transaction_radius": 24, "account_number": "6011426712914655", "lat": 30.41587701872354, "trxn_mean": 8}, {"city": "Daytona Beach", "long": -81.04261668368787, "account_id": 90, "cvv": "595", "expiration_date": "2/2024", "trxn_std": 10, "city_alias": "Holly Hill", "card_type": "MasterCard", "state": "FL", "transaction_radius": 24, "account_number": "2223626297067604", "lat": 29.238527782356552, "trxn_mean": 39}, {"city": "Fort Walton Beach", "long": -86.62201240274554, "account_id": 91, "cvv": "932", "expiration_date": "8/2023", "trxn_std": 3, "city_alias": "Okaloosa Is", "card_type": "Diners", "state": "FL", "transaction_radius": 40, "account_number": "30080568827774", "lat": 30.424883627422837, "trxn_mean": 10}, {"city": "Boneville", "long": -82.41812074634973, "account_id": 92, "cvv": "807", "expiration_date": "4/2023", "trxn_std": 11, "city_alias": "Boneville", "card_type": "MasterCard", "state": "GA", "transaction_radius": 13, "account_number": "2222100979564594", "lat": 33.463501235360624, "trxn_mean": 24}, {"city": "Saint James City", "long": -82.07346384448492, "account_id": 93, "cvv": "380", "expiration_date": "11/2023", "trxn_std": 3, "city_alias": "Saint James City", "card_type": "Amex", "state": "FL", "transaction_radius": 4, "account_number": "346805319732058", "lat": 26.50273109845619, "trxn_mean": 12}, {"city": "Mystic", "long": -83.33057546882374, "account_id": 94, "cvv": "269", "expiration_date": "6/2023", "trxn_std": 13, "city_alias": "Mystic", "card_type": "Visa", "state": "GA", "transaction_radius": 26, "account_number": "4024007151070876", "lat": 31.617022197937846, "trxn_mean": 32}, {"city": "Sanford", "long": -81.26452570696368, "account_id": 95, "cvv": "047", "expiration_date": "8/2022", "trxn_std": 1, "city_alias": "Sanford", "card_type": "Diners", "state": "FL", "transaction_radius": 32, "account_number": "30374640486943", "lat": 28.80776912950596, "trxn_mean": 4}, {"city": "Flovilla", "long": -83.89337751669127, "account_id": 96, "cvv": "164", "expiration_date": "7/2019", "trxn_std": 16, "city_alias": "Flovilla", "card_type": "Diners", "state": "GA", "transaction_radius": 5, "account_number": "30271526386140", "lat": 33.25877549431616, "trxn_mean": 35}, {"city": "Gretna", "long": -84.65483271587263, "account_id": 97, "cvv": "422", "expiration_date": "10/2024", "trxn_std": 7, "city_alias": "Gretna", "card_type": "MasterCard", "state": "FL", "transaction_radius": 14, "account_number": "2370868626628679", "lat": 30.62208119068169, "trxn_mean": 14}, {"city": "Debary", "long": -81.33401978256612, "account_id": 98, "cvv": "765", "expiration_date": "4/2020", "trxn_std": 4, "city_alias": "Debary", "card_type": "Visa", "state": "FL", "transaction_radius": 21, "account_number": "4716716882782640", "lat": 28.876422792503593, "trxn_mean": 34}, {"city": "Daytona Beach", "long": -81.00954510649828, "account_id": 99, "cvv": "790", "expiration_date": "12/2020", "trxn_std": 11, "city_alias": "S Daytona", "card_type": "Amex", "state": "FL", "transaction_radius": 13, "account_number": "373021747985062", "lat": 29.16111287770937, "trxn_mean": 30}, {"city": "Meigs", "long": -84.08401935914564, "account_id": 100, "cvv": "992", "expiration_date": "12/2023", "trxn_std": 5, "city_alias": "Hinsonton", "card_type": "Amex", "state": "GA", "transaction_radius": 1, "account_number": "345762926164095", "lat": 31.07734463180818, "trxn_mean": 16}, {"city": "Williamson", "long": -84.3565898060658, "account_id": 101, "cvv": "184", "expiration_date": "7/2022", "trxn_std": 1, "city_alias": "Williamson", "card_type": "Amex", "state": "GA", "transaction_radius": 22, "account_number": "377083289414964", "lat": 33.17730584713893, "trxn_mean": 3}, {"city": "Screven", "long": -82.01210666264633, "account_id": 102, "cvv": "156", "expiration_date": "9/2023", "trxn_std": 16, "city_alias": "Screven", "card_type": "Discover", "state": "GA", "transaction_radius": 21, "account_number": "6011901029640953", "lat": 31.491267217152274, "trxn_mean": 37}, {"city": "Daisy", "long": -81.82963808835584, "account_id": 103, "cvv": "129", "expiration_date": "2/2024", "trxn_std": 3, "city_alias": "Daisy", "card_type": "Amex", "state": "GA", "transaction_radius": 32, "account_number": "340220174976558", "lat": 32.15686367661815, "trxn_mean": 18}, {"city": "West Palm Beach", "long": -80.0305760371337, "account_id": 104, "cvv": "767", "expiration_date": "6/2024", "trxn_std": 1, "city_alias": "Palm Beach Shores", "card_type": "Amex", "state": "FL", "transaction_radius": 40, "account_number": "349542615098887", "lat": 26.773218707914964, "trxn_mean": 2}, {"city": "Appling", "long": -82.32123390695911, "account_id": 105, "cvv": "738", "expiration_date": "10/2020", "trxn_std": 13, "city_alias": "Pollards Corner", "card_type": "Amex", "state": "GA", "transaction_radius": 38, "account_number": "374849879564365", "lat": 33.55108673688373, "trxn_mean": 34}, {"city": "Deland", "long": -81.2982458181197, "account_id": 106, "cvv": "782", "expiration_date": "2/2023", "trxn_std": 9, "city_alias": "Stetson University", "card_type": "Amex", "state": "FL", "transaction_radius": 38, "account_number": "345165288471746", "lat": 29.04003869752604, "trxn_mean": 25}, {"city": "Micanopy", "long": -82.27485581975998, "account_id": 107, "cvv": "550", "expiration_date": "1/2021", "trxn_std": 7, "city_alias": "Micanopy", "card_type": "Visa", "state": "FL", "transaction_radius": 29, "account_number": "4539166414443227", "lat": 29.509783778335034, "trxn_mean": 38}, {"city": "Donalsonville", "long": -84.88431023383642, "account_id": 108, "cvv": "671", "expiration_date": "8/2022", "trxn_std": 6, "city_alias": "Donalsonville", "card_type": "Visa", "state": "GA", "transaction_radius": 26, "account_number": "4916661569643921", "lat": 31.045490060067884, "trxn_mean": 12}, {"city": "Pensacola", "long": -87.30396703744977, "account_id": 109, "cvv": "518", "expiration_date": "1/2021", "trxn_std": 4, "city_alias": "Pensacola Naval Hospital", "card_type": "Visa", "state": "FL", "transaction_radius": 12, "account_number": "4532636556687739", "lat": 30.40350926269447, "trxn_mean": 13}, {"city": "Fort Pierce", "long": -80.3306040400607, "account_id": 110, "cvv": "164", "expiration_date": "11/2021", "trxn_std": 1, "city_alias": "Fort Pierce", "card_type": "Diners", "state": "FL", "transaction_radius": 27, "account_number": "30015728642770", "lat": 27.441594612169318, "trxn_mean": 1}, {"city": "Cornelia", "long": -83.52199371793238, "account_id": 111, "cvv": "061", "expiration_date": "4/2024", "trxn_std": 2, "city_alias": "Cornelia", "card_type": "Visa", "state": "GA", "transaction_radius": 18, "account_number": "4556047176622448", "lat": 34.506617989473355, "trxn_mean": 3}, {"city": "Swainsboro", "long": -82.32872595507425, "account_id": 112, "cvv": "181", "expiration_date": "10/2019", "trxn_std": 4, "city_alias": "Swainsboro", "card_type": "Diners", "state": "GA", "transaction_radius": 21, "account_number": "30192328886816", "lat": 32.59240353397942, "trxn_mean": 7}, {"city": "Barberville", "long": -81.42598244822098, "account_id": 113, "cvv": "810", "expiration_date": "8/2020", "trxn_std": 18, "city_alias": "Barberville", "card_type": "Visa", "state": "FL", "transaction_radius": 19, "account_number": "4539899333353610", "lat": 29.182070293078528, "trxn_mean": 36}, {"city": "Auburndale", "long": -81.79350742989104, "account_id": 114, "cvv": "644", "expiration_date": "7/2020", "trxn_std": 2, "city_alias": "Auburndale", "card_type": "Diners", "state": "FL", "transaction_radius": 4, "account_number": "30121036277265", "lat": 28.06036250804151, "trxn_mean": 16}, {"city": "Havana", "long": -84.41957235943745, "account_id": 115, "cvv": "061", "expiration_date": "3/2021", "trxn_std": 7, "city_alias": "Havana", "card_type": "Discover", "state": "FL", "transaction_radius": 20, "account_number": "6011912766134365", "lat": 30.61902177184619, "trxn_mean": 33}, {"city": "Marble Hill", "long": -84.34259548836383, "account_id": 116, "cvv": "956", "expiration_date": "5/2019", "trxn_std": 2, "city_alias": "Marble Hill", "card_type": "Diners", "state": "GA", "transaction_radius": 7, "account_number": "38418156815037", "lat": 34.425268021930556, "trxn_mean": 14}, {"city": "Wadley", "long": -82.40891508867564, "account_id": 117, "cvv": "887", "expiration_date": "6/2019", "trxn_std": 1, "city_alias": "Wadley", "card_type": "MasterCard", "state": "GA", "transaction_radius": 14, "account_number": "5583176369672623", "lat": 32.871708277292655, "trxn_mean": 2}, {"city": "Grayson", "long": -83.96056828097124, "account_id": 118, "cvv": "308", "expiration_date": "3/2021", "trxn_std": 5, "city_alias": "Grayson", "card_type": "Discover", "state": "GA", "transaction_radius": 29, "account_number": "6011757041340174", "lat": 33.89929754424711, "trxn_mean": 31}, {"city": "Atlanta", "long": -84.30831042206654, "account_id": 119, "cvv": "789", "expiration_date": "7/2020", "trxn_std": 11, "city_alias": "Briarcliff", "card_type": "Amex", "state": "GA", "transaction_radius": 12, "account_number": "346523860795602", "lat": 33.81169246360228, "trxn_mean": 37}, {"city": "Summerfield", "long": -82.01550911976524, "account_id": 120, "cvv": "628", "expiration_date": "11/2020", "trxn_std": 2, "city_alias": "Summerfield", "card_type": "Amex", "state": "FL", "transaction_radius": 11, "account_number": "348482147190780", "lat": 29.00271264624572, "trxn_mean": 8}, {"city": "Rocky Ford", "long": -81.83458337244497, "account_id": 121, "cvv": "174", "expiration_date": "2/2023", "trxn_std": 1, "city_alias": "Rocky Ford", "card_type": "MasterCard", "state": "GA", "transaction_radius": 21, "account_number": "2609274896374685", "lat": 32.668545090685335, "trxn_mean": 35}, {"city": "Kissimmee", "long": -81.40243789417474, "account_id": 122, "cvv": "697", "expiration_date": "12/2022", "trxn_std": 1, "city_alias": "Kissimmee", "card_type": "Discover", "state": "FL", "transaction_radius": 9, "account_number": "6011499091109841", "lat": 28.286911128921222, "trxn_mean": 3}, {"city": "Coral Gables", "long": -80.26854773569536, "account_id": 123, "cvv": "092", "expiration_date": "2/2019", "trxn_std": 6, "city_alias": "Miami", "card_type": "Discover", "state": "FL", "transaction_radius": 36, "account_number": "6011998616407630", "lat": 25.754367800624436, "trxn_mean": 15}, {"city": "Nicholls", "long": -82.63011646618469, "account_id": 124, "cvv": "222", "expiration_date": "4/2020", "trxn_std": 7, "city_alias": "Wilsonville", "card_type": "Discover", "state": "GA", "transaction_radius": 11, "account_number": "6011837680011300", "lat": 31.512339103759835, "trxn_mean": 24}, {"city": "Fort Walton Beach", "long": -86.61197979529697, "account_id": 125, "cvv": "807", "expiration_date": "9/2019", "trxn_std": 2, "city_alias": "Ft Walton Beach", "card_type": "MasterCard", "state": "FL", "transaction_radius": 37, "account_number": "2221816999345646", "lat": 30.41503470880295, "trxn_mean": 36}, {"city": "Nashville", "long": -83.24716990845839, "account_id": 126, "cvv": "565", "expiration_date": "5/2024", "trxn_std": 3, "city_alias": "Nashville", "card_type": "Visa", "state": "GA", "transaction_radius": 28, "account_number": "4556810801243454", "lat": 31.191010505897722, "trxn_mean": 5}, {"city": "Zephyrhills", "long": -82.17625913902187, "account_id": 127, "cvv": "373", "expiration_date": "11/2019", "trxn_std": 4, "city_alias": "Zephyrhills", "card_type": "Discover", "state": "FL", "transaction_radius": 39, "account_number": "6011284843321948", "lat": 28.238674924119547, "trxn_mean": 32}, {"city": "Dewy Rose", "long": -82.94772244297177, "account_id": 128, "cvv": "598", "expiration_date": "10/2021", "trxn_std": 13, "city_alias": "Dewy Rose", "card_type": "Visa", "state": "GA", "transaction_radius": 38, "account_number": "4916512803627297", "lat": 34.16478075360987, "trxn_mean": 33}, {"city": "Dacula", "long": -83.89289649174407, "account_id": 129, "cvv": "020", "expiration_date": "12/2021", "trxn_std": 15, "city_alias": "Dacula", "card_type": "MasterCard", "state": "GA", "transaction_radius": 26, "account_number": "2295224075271391", "lat": 33.99368638717781, "trxn_mean": 30}, {"city": "Ludowici", "long": -81.74743684704758, "account_id": 130, "cvv": "840", "expiration_date": "2/2020", "trxn_std": 3, "city_alias": "Ludowici", "card_type": "Amex", "state": "GA", "transaction_radius": 36, "account_number": "340317228046923", "lat": 31.712876307124347, "trxn_mean": 24}, {"city": "Warner Robins", "long": -83.59662902270911, "account_id": 131, "cvv": "977", "expiration_date": "1/2024", "trxn_std": 1, "city_alias": "Robins AFB", "card_type": "Visa", "state": "GA", "transaction_radius": 27, "account_number": "4556466484743839", "lat": 32.6448608175173, "trxn_mean": 1}, {"city": "NASA", "long": -80.58221212990821, "account_id": 132, "cvv": "590", "expiration_date": "3/2023", "trxn_std": 1, "city_alias": "Nasa", "card_type": "Diners", "state": "FL", "transaction_radius": 24, "account_number": "30050598329380", "lat": 28.468927308193866, "trxn_mean": 26}, {"city": "Brinson", "long": -84.7327371515132, "account_id": 133, "cvv": "361", "expiration_date": "8/2021", "trxn_std": 6, "city_alias": "Brinson", "card_type": "Visa", "state": "GA", "transaction_radius": 25, "account_number": "4929054437863670", "lat": 30.97172022055416, "trxn_mean": 32}, {"city": "Macclenny", "long": -82.11712363631263, "account_id": 134, "cvv": "013", "expiration_date": "10/2023", "trxn_std": 7, "city_alias": "Macclenny", "card_type": "MasterCard", "state": "FL", "transaction_radius": 32, "account_number": "2223583481242180", "lat": 30.28720354262273, "trxn_mean": 26}, {"city": "Live Oak", "long": -82.98068363513602, "account_id": 135, "cvv": "302", "expiration_date": "12/2024", "trxn_std": 3, "city_alias": "Boys Ranch", "card_type": "Discover", "state": "FL", "transaction_radius": 4, "account_number": "6011267083109180", "lat": 30.30835285824734, "trxn_mean": 9}, {"city": "Eastanollee", "long": -83.26030296545315, "account_id": 136, "cvv": "797", "expiration_date": "7/2022", "trxn_std": 10, "city_alias": "Eastanollee", "card_type": "Diners", "state": "GA", "transaction_radius": 33, "account_number": "30194188812890", "lat": 34.51528644883305, "trxn_mean": 33}, {"city": "Hoschton", "long": -83.75625559611917, "account_id": 137, "cvv": "236", "expiration_date": "7/2024", "trxn_std": 3, "city_alias": "Hoschton", "card_type": "Discover", "state": "GA", "transaction_radius": 37, "account_number": "6011790803338599", "lat": 34.09168790109309, "trxn_mean": 36}, {"city": "Saint Cloud", "long": -81.2761657880889, "account_id": 138, "cvv": "739", "expiration_date": "7/2022", "trxn_std": 6, "city_alias": "Magnolia Square", "card_type": "Amex", "state": "FL", "transaction_radius": 8, "account_number": "371867689055351", "lat": 28.244032221460206, "trxn_mean": 31}, {"city": "Punta Gorda", "long": -82.09563510084698, "account_id": 139, "cvv": "847", "expiration_date": "4/2020", "trxn_std": 5, "city_alias": "Pt Charlotte", "card_type": "Visa", "state": "FL", "transaction_radius": 33, "account_number": "4716588798834223", "lat": 26.971208535443967, "trxn_mean": 13}, {"city": "Daytona Beach", "long": -80.996265686344, "account_id": 140, "cvv": "063", "expiration_date": "10/2023", "trxn_std": 15, "city_alias": "Dayt Bch Sh", "card_type": "Amex", "state": "FL", "transaction_radius": 3, "account_number": "341080927097659", "lat": 29.187454575842015, "trxn_mean": 38}, {"city": "Lincolnton", "long": -82.4832147220999, "account_id": 141, "cvv": "717", "expiration_date": "3/2023", "trxn_std": 4, "city_alias": "Amity", "card_type": "Discover", "state": "GA", "transaction_radius": 16, "account_number": "6011887680944935", "lat": 33.64113240041835, "trxn_mean": 27}, {"city": "Malabar", "long": -80.57061336296798, "account_id": 142, "cvv": "621", "expiration_date": "10/2020", "trxn_std": 1, "city_alias": "Grant Valkaria", "card_type": "Diners", "state": "FL", "transaction_radius": 26, "account_number": "38291323969171", "lat": 28.008676048641185, "trxn_mean": 2}, {"city": "Everglades City", "long": -81.3890191201668, "account_id": 143, "cvv": "772", "expiration_date": "12/2019", "trxn_std": 1, "city_alias": "Everglades", "card_type": "Amex", "state": "FL", "transaction_radius": 38, "account_number": "379577266816180", "lat": 25.865593386730588, "trxn_mean": 3}, {"city": "Lake Hamilton", "long": -81.65061471157618, "account_id": 144, "cvv": "018", "expiration_date": "7/2023", "trxn_std": 9, "city_alias": "Lake Hamilton", "card_type": "Discover", "state": "FL", "transaction_radius": 9, "account_number": "6011657431425157", "lat": 28.043597308649165, "trxn_mean": 39}, {"city": "Eglin AFB", "long": -86.5483495509844, "account_id": 145, "cvv": "519", "expiration_date": "3/2024", "trxn_std": 14, "city_alias": "Eglin AFB", "card_type": "MasterCard", "state": "FL", "transaction_radius": 20, "account_number": "2289964428246875", "lat": 30.468695133461736, "trxn_mean": 35}, {"city": "West Palm Beach", "long": -80.04848668798543, "account_id": 146, "cvv": "135", "expiration_date": "12/2023", "trxn_std": 17, "city_alias": "Palm Bch Shrs", "card_type": "Discover", "state": "FL", "transaction_radius": 19, "account_number": "6011666362421218", "lat": 26.710349916200464, "trxn_mean": 40}, {"city": "Atlanta", "long": -84.36658578943127, "account_id": 147, "cvv": "103", "expiration_date": "8/2019", "trxn_std": 4, "city_alias": "Tuxedo", "card_type": "Amex", "state": "GA", "transaction_radius": 37, "account_number": "346586625590535", "lat": 33.841488238409404, "trxn_mean": 14}, {"city": "Wewahitchka", "long": -85.19530508357957, "account_id": 148, "cvv": "382", "expiration_date": "12/2023", "trxn_std": 7, "city_alias": "Kinard", "card_type": "MasterCard", "state": "FL", "transaction_radius": 4, "account_number": "2233785965596175", "lat": 30.117698892128594, "trxn_mean": 25}, {"city": "Colquitt", "long": -84.7382287889255, "account_id": 149, "cvv": "679", "expiration_date": "5/2021", "trxn_std": 1, "city_alias": "Colquitt", "card_type": "Diners", "state": "GA", "transaction_radius": 22, "account_number": "38188179857288", "lat": 31.166237033215083, "trxn_mean": 26}, {"city": "Orlando", "long": -81.19478046977622, "account_id": 150, "cvv": "150", "expiration_date": "12/2022", "trxn_std": 2, "city_alias": "University Of Central Fl", "card_type": "Amex", "state": "FL", "transaction_radius": 2, "account_number": "348903233565882", "lat": 28.597550607687797, "trxn_mean": 18}, {"city": "Eatonton", "long": -83.36970262185208, "account_id": 151, "cvv": "714", "expiration_date": "12/2022", "trxn_std": 8, "city_alias": "Haband", "card_type": "Discover", "state": "GA", "transaction_radius": 20, "account_number": "6011662767884498", "lat": 33.304832422721255, "trxn_mean": 26}, {"city": "Killarney", "long": -81.65531112979204, "account_id": 152, "cvv": "609", "expiration_date": "2/2023", "trxn_std": 3, "city_alias": "Oakland", "card_type": "MasterCard", "state": "FL", "transaction_radius": 9, "account_number": "2239146733258842", "lat": 28.54224597436112, "trxn_mean": 15}, {"city": "Melbourne", "long": -80.66124959174074, "account_id": 153, "cvv": "247", "expiration_date": "3/2021", "trxn_std": 5, "city_alias": "Melbourne Village", "card_type": "Diners", "state": "FL", "transaction_radius": 17, "account_number": "38010382852304", "lat": 28.09046048734888, "trxn_mean": 17}, {"city": "Atlanta", "long": -84.2566281585271, "account_id": 154, "cvv": "993", "expiration_date": "6/2021", "trxn_std": 2, "city_alias": "Northlake", "card_type": "Diners", "state": "GA", "transaction_radius": 4, "account_number": "30380117750729", "lat": 33.854457494437995, "trxn_mean": 30}, {"city": "Panacea", "long": -84.37705307849166, "account_id": 155, "cvv": "085", "expiration_date": "1/2022", "trxn_std": 1, "city_alias": "Alligator Point", "card_type": "MasterCard", "state": "FL", "transaction_radius": 19, "account_number": "2226633680735984", "lat": 29.890372612485866, "trxn_mean": 12}, {"city": "Wesley Chapel", "long": -82.35917942001379, "account_id": 156, "cvv": "696", "expiration_date": "4/2020", "trxn_std": 14, "city_alias": "Zephyrhills", "card_type": "Discover", "state": "FL", "transaction_radius": 39, "account_number": "6011461042563492", "lat": 28.187865061029775, "trxn_mean": 37}, {"city": "Kissimmee", "long": -81.59404533446421, "account_id": 157, "cvv": "453", "expiration_date": "1/2023", "trxn_std": 4, "city_alias": "Reunion", "card_type": "Discover", "state": "FL", "transaction_radius": 21, "account_number": "6011281423173939", "lat": 28.27544754080962, "trxn_mean": 29}, {"city": "Canal Point", "long": -80.63863754077953, "account_id": 158, "cvv": "988", "expiration_date": "1/2022", "trxn_std": 2, "city_alias": "Canal Point", "card_type": "Visa", "state": "FL", "transaction_radius": 40, "account_number": "4929201035299043", "lat": 26.854253359970006, "trxn_mean": 13}, {"city": "Rome", "long": -85.16973390918113, "account_id": 159, "cvv": "139", "expiration_date": "5/2024", "trxn_std": 9, "city_alias": "Rome", "card_type": "Discover", "state": "GA", "transaction_radius": 20, "account_number": "6011811065538252", "lat": 34.262069657861005, "trxn_mean": 27}, {"city": "Eatonton", "long": -83.38348220981712, "account_id": 160, "cvv": "647", "expiration_date": "3/2020", "trxn_std": 3, "city_alias": "Eatonton", "card_type": "Amex", "state": "GA", "transaction_radius": 3, "account_number": "342570900510412", "lat": 33.32160365881222, "trxn_mean": 10}, {"city": "Walthourville", "long": -81.62750307364455, "account_id": 161, "cvv": "802", "expiration_date": "1/2023", "trxn_std": 1, "city_alias": "Walthourville", "card_type": "Diners", "state": "GA", "transaction_radius": 28, "account_number": "30260339531166", "lat": 31.76908667607329, "trxn_mean": 1}, {"city": "Norcross", "long": -84.18951189374177, "account_id": 162, "cvv": "105", "expiration_date": "11/2020", "trxn_std": 6, "city_alias": "Parkway", "card_type": "Amex", "state": "GA", "transaction_radius": 12, "account_number": "340399301865841", "lat": 33.93982826472256, "trxn_mean": 32}, {"city": "Oglethorpe", "long": -84.05593820273553, "account_id": 163, "cvv": "048", "expiration_date": "1/2021", "trxn_std": 3, "city_alias": "Olgethorpe", "card_type": "Visa", "state": "GA", "transaction_radius": 26, "account_number": "4014904604732817", "lat": 32.29872598701492, "trxn_mean": 11}, {"city": "Nashville", "long": -83.24706440546804, "account_id": 164, "cvv": "430", "expiration_date": "5/2019", "trxn_std": 18, "city_alias": "Nashville", "card_type": "Amex", "state": "GA", "transaction_radius": 5, "account_number": "373466253181525", "lat": 31.20084536863352, "trxn_mean": 38}, {"city": "Portal", "long": -81.91924370645538, "account_id": 165, "cvv": "540", "expiration_date": "8/2021", "trxn_std": 17, "city_alias": "Aaron", "card_type": "Amex", "state": "GA", "transaction_radius": 25, "account_number": "374367804670553", "lat": 32.52348101834742, "trxn_mean": 36}, {"city": "Saint Augustine", "long": -81.26624396626774, "account_id": 166, "cvv": "049", "expiration_date": "10/2023", "trxn_std": 2, "city_alias": "Saint Augustine Beach", "card_type": "Discover", "state": "FL", "transaction_radius": 27, "account_number": "6011412201569754", "lat": 29.838996212383563, "trxn_mean": 12}, {"city": "Pensacola", "long": -87.31001721662669, "account_id": 167, "cvv": "235", "expiration_date": "4/2021", "trxn_std": 8, "city_alias": "Bellview", "card_type": "Visa", "state": "FL", "transaction_radius": 3, "account_number": "4929208777345918", "lat": 30.4568212808255, "trxn_mean": 16}, {"city": "Cairo", "long": -84.19636350512664, "account_id": 168, "cvv": "553", "expiration_date": "9/2023", "trxn_std": 1, "city_alias": "Cairo", "card_type": "MasterCard", "state": "GA", "transaction_radius": 24, "account_number": "2268010922542552", "lat": 30.87238377663507, "trxn_mean": 3}, {"city": "Gay", "long": -84.57879007460734, "account_id": 169, "cvv": "800", "expiration_date": "4/2019", "trxn_std": 3, "city_alias": "Gay", "card_type": "Amex", "state": "GA", "transaction_radius": 3, "account_number": "374350475881436", "lat": 33.09866943555708, "trxn_mean": 8}, {"city": "West Palm Beach", "long": -80.14359779350265, "account_id": 170, "cvv": "912", "expiration_date": "7/2023", "trxn_std": 2, "city_alias": "Palm Beach Gardens", "card_type": "Visa", "state": "FL", "transaction_radius": 12, "account_number": "4539470987769418", "lat": 26.828250644088488, "trxn_mean": 34}, {"city": "Land O Lakes", "long": -82.46257886492783, "account_id": 171, "cvv": "009", "expiration_date": "11/2020", "trxn_std": 6, "city_alias": "Land O Lakes", "card_type": "Amex", "state": "FL", "transaction_radius": 18, "account_number": "370020126050335", "lat": 28.223933878003287, "trxn_mean": 26}, {"city": "Dania", "long": -80.13908405470711, "account_id": 172, "cvv": "694", "expiration_date": "2/2024", "trxn_std": 1, "city_alias": "Dania Beach", "card_type": "Amex", "state": "FL", "transaction_radius": 22, "account_number": "378191964022199", "lat": 26.05734048457083, "trxn_mean": 1}, {"city": "Bonifay", "long": -85.64078283637328, "account_id": 173, "cvv": "917", "expiration_date": "1/2023", "trxn_std": 9, "city_alias": "Esto", "card_type": "Diners", "state": "FL", "transaction_radius": 39, "account_number": "30172576488523", "lat": 30.983437531814467, "trxn_mean": 29}, {"city": "Mc Caysville", "long": -84.37615162849114, "account_id": 174, "cvv": "181", "expiration_date": "8/2023", "trxn_std": 4, "city_alias": "Mccaysville", "card_type": "Diners", "state": "GA", "transaction_radius": 26, "account_number": "30209307380544", "lat": 34.981178840753635, "trxn_mean": 25}, {"city": "Gulf Hammock", "long": -82.71836642222324, "account_id": 175, "cvv": "828", "expiration_date": "11/2020", "trxn_std": 6, "city_alias": "Gulf Hammock", "card_type": "Discover", "state": "FL", "transaction_radius": 29, "account_number": "6011040045588233", "lat": 29.25766905214476, "trxn_mean": 22}, {"city": "Kathleen", "long": -82.01814707985893, "account_id": 176, "cvv": "302", "expiration_date": "10/2024", "trxn_std": 4, "city_alias": "Kathleen", "card_type": "Diners", "state": "FL", "transaction_radius": 11, "account_number": "38994792257677", "lat": 28.11583541768829, "trxn_mean": 18}, {"city": "Wadley", "long": -82.42455603490363, "account_id": 177, "cvv": "134", "expiration_date": "8/2020", "trxn_std": 1, "city_alias": "Moxley", "card_type": "MasterCard", "state": "GA", "transaction_radius": 15, "account_number": "2440004256101904", "lat": 32.93152294917804, "trxn_mean": 7}, {"city": "Milledgeville", "long": -83.22718672001407, "account_id": 178, "cvv": "264", "expiration_date": "1/2023", "trxn_std": 2, "city_alias": "Mville", "card_type": "Amex", "state": "GA", "transaction_radius": 11, "account_number": "379638199425208", "lat": 33.084943953669566, "trxn_mean": 19}, {"city": "Jacksonville", "long": -82.98393157127441, "account_id": 179, "cvv": "419", "expiration_date": "4/2019", "trxn_std": 12, "city_alias": "Jacksonville", "card_type": "Amex", "state": "GA", "transaction_radius": 16, "account_number": "343928551435009", "lat": 31.81750841103711, "trxn_mean": 36}, {"city": "Stockbridge", "long": -84.22888431707071, "account_id": 180, "cvv": "719", "expiration_date": "2/2024", "trxn_std": 12, "city_alias": "Stockbridge", "card_type": "MasterCard", "state": "GA", "transaction_radius": 18, "account_number": "2284838791195007", "lat": 33.539360012450956, "trxn_mean": 23}, {"city": "Sumatra", "long": -84.97397699982464, "account_id": 181, "cvv": "234", "expiration_date": "3/2021", "trxn_std": 8, "city_alias": "Sumatra", "card_type": "Visa", "state": "FL", "transaction_radius": 37, "account_number": "4929017316450166", "lat": 30.02511200102963, "trxn_mean": 30}, {"city": "Clarksville", "long": -85.18272455180397, "account_id": 182, "cvv": "365", "expiration_date": "7/2023", "trxn_std": 3, "city_alias": "Clarksville", "card_type": "Diners", "state": "FL", "transaction_radius": 8, "account_number": "38322712383367", "lat": 30.442128871946398, "trxn_mean": 6}, {"city": "Fort Lauderdale", "long": -80.33336597054551, "account_id": 183, "cvv": "377", "expiration_date": "5/2020", "trxn_std": 10, "city_alias": "American Express", "card_type": "MasterCard", "state": "FL", "transaction_radius": 23, "account_number": "2227822556271179", "lat": 26.14599932490109, "trxn_mean": 21}, {"city": "Alpharetta", "long": -84.28902895184119, "account_id": 184, "cvv": "649", "expiration_date": "10/2024", "trxn_std": 1, "city_alias": "Johns Creek", "card_type": "Diners", "state": "GA", "transaction_radius": 18, "account_number": "30215329215634", "lat": 34.08043258143088, "trxn_mean": 20}, {"city": "Butler", "long": -84.24341091045471, "account_id": 185, "cvv": "031", "expiration_date": "3/2020", "trxn_std": 2, "city_alias": "Butler", "card_type": "Diners", "state": "GA", "transaction_radius": 6, "account_number": "36418963416351", "lat": 32.55219300209964, "trxn_mean": 36}, {"city": "Villa Rica", "long": -84.92395297783379, "account_id": 186, "cvv": "755", "expiration_date": "3/2023", "trxn_std": 2, "city_alias": "Villa Rica", "card_type": "Discover", "state": "GA", "transaction_radius": 33, "account_number": "6011488574520822", "lat": 33.7371918351078, "trxn_mean": 33}, {"city": "Lutz", "long": -82.45646307597691, "account_id": 187, "cvv": "010", "expiration_date": "9/2019", "trxn_std": 12, "city_alias": "Lutz", "card_type": "MasterCard", "state": "FL", "transaction_radius": 31, "account_number": "2229671113417389", "lat": 28.146270899396907, "trxn_mean": 30}, {"city": "North Fort Myers", "long": -81.88520597893958, "account_id": 188, "cvv": "860", "expiration_date": "12/2019", "trxn_std": 12, "city_alias": "N Ft Myers", "card_type": "MasterCard", "state": "FL", "transaction_radius": 15, "account_number": "2222226952072287", "lat": 26.662452780777304, "trxn_mean": 32}, {"city": "Baxley", "long": -82.34349108406657, "account_id": 189, "cvv": "808", "expiration_date": "2/2024", "trxn_std": 14, "city_alias": "Baxley", "card_type": "Amex", "state": "GA", "transaction_radius": 11, "account_number": "376145679294701", "lat": 31.773421287999895, "trxn_mean": 32}, {"city": "Swainsboro", "long": -82.32146613149669, "account_id": 190, "cvv": "997", "expiration_date": "10/2020", "trxn_std": 6, "city_alias": "Lexsy", "card_type": "Discover", "state": "GA", "transaction_radius": 25, "account_number": "6011137761753841", "lat": 32.482732541372, "trxn_mean": 11}, {"city": "Miami", "long": -80.40218248442103, "account_id": 191, "cvv": "138", "expiration_date": "2/2019", "trxn_std": 4, "city_alias": "Crossings", "card_type": "Diners", "state": "FL", "transaction_radius": 31, "account_number": "36037449186741", "lat": 25.66809163246183, "trxn_mean": 29}, {"city": "Key West", "long": -81.78496150947082, "account_id": 192, "cvv": "891", "expiration_date": "5/2023", "trxn_std": 6, "city_alias": "E Rockland Ky", "card_type": "Discover", "state": "FL", "transaction_radius": 32, "account_number": "6011881357347928", "lat": 24.560064366471508, "trxn_mean": 15}, {"city": "Cornelia", "long": -83.53214372066385, "account_id": 193, "cvv": "630", "expiration_date": "3/2019", "trxn_std": 14, "city_alias": "Cornelia", "card_type": "Diners", "state": "GA", "transaction_radius": 12, "account_number": "30227852274706", "lat": 34.51633219939338, "trxn_mean": 27}, {"city": "Hagan", "long": -81.92873325640734, "account_id": 194, "cvv": "386", "expiration_date": "4/2021", "trxn_std": 2, "city_alias": "Hagan", "card_type": "MasterCard", "state": "GA", "transaction_radius": 40, "account_number": "5496299603920156", "lat": 32.151069756855634, "trxn_mean": 15}, {"city": "Tallevast", "long": -82.53789266783973, "account_id": 195, "cvv": "201", "expiration_date": "6/2024", "trxn_std": 7, "city_alias": "Tallevast", "card_type": "Amex", "state": "FL", "transaction_radius": 35, "account_number": "344829990719228", "lat": 27.396566395991083, "trxn_mean": 16}, {"city": "Tavares", "long": -81.73038003910911, "account_id": 196, "cvv": "877", "expiration_date": "11/2019", "trxn_std": 13, "city_alias": "Tavares", "card_type": "Diners", "state": "FL", "transaction_radius": 7, "account_number": "38969054151016", "lat": 28.809188289463215, "trxn_mean": 27}, {"city": "Jacksonville", "long": -82.00425101738291, "account_id": 197, "cvv": "532", "expiration_date": "3/2022", "trxn_std": 5, "city_alias": "Maxville", "card_type": "MasterCard", "state": "FL", "transaction_radius": 39, "account_number": "2581515496641770", "lat": 30.203925960458555, "trxn_mean": 37}, {"city": "Lawtey", "long": -82.0668108423551, "account_id": 198, "cvv": "997", "expiration_date": "3/2021", "trxn_std": 4, "city_alias": "Lawtey", "card_type": "Diners", "state": "FL", "transaction_radius": 1, "account_number": "30124269479632", "lat": 30.03902752820555, "trxn_mean": 32}, {"city": "Ashburn", "long": -83.6481369458027, "account_id": 199, "cvv": "466", "expiration_date": "12/2021", "trxn_std": 2, "city_alias": "Ashburn", "card_type": "MasterCard", "state": "GA", "transaction_radius": 9, "account_number": "2221859183509189", "lat": 31.70123649450994, "trxn_mean": 12}, {"city": "Wiley", "long": -83.41119699776897, "account_id": 200, "cvv": "022", "expiration_date": "7/2023", "trxn_std": 8, "city_alias": "Wiley", "card_type": "Amex", "state": "GA", "transaction_radius": 4, "account_number": "370400122879491", "lat": 34.77695398226464, "trxn_mean": 38}, {"city": "Arnoldsville", "long": -83.21181862786042, "account_id": 201, "cvv": "133", "expiration_date": "11/2019", "trxn_std": 1, "city_alias": "Arnoldsville", "card_type": "Visa", "state": "GA", "transaction_radius": 13, "account_number": "4916065026081206", "lat": 33.90014819931999, "trxn_mean": 22}, {"city": "Rayle", "long": -82.90391384895366, "account_id": 202, "cvv": "987", "expiration_date": "5/2021", "trxn_std": 2, "city_alias": "Philomath", "card_type": "Discover", "state": "GA", "transaction_radius": 29, "account_number": "6011209880663274", "lat": 33.780080164245014, "trxn_mean": 9}, {"city": "Tallulah Falls", "long": -83.37659151542498, "account_id": 203, "cvv": "346", "expiration_date": "2/2021", "trxn_std": 11, "city_alias": "Tallulah Fls", "card_type": "Amex", "state": "GA", "transaction_radius": 13, "account_number": "377538214629580", "lat": 34.72855249815792, "trxn_mean": 24}, {"city": "Knoxville", "long": -83.99289473713577, "account_id": 204, "cvv": "765", "expiration_date": "4/2022", "trxn_std": 1, "city_alias": "Knoxville", "card_type": "MasterCard", "state": "GA", "transaction_radius": 25, "account_number": "5463872416535160", "lat": 32.72926892617373, "trxn_mean": 1}, {"city": "Loxahatchee", "long": -80.24397629478166, "account_id": 205, "cvv": "826", "expiration_date": "11/2020", "trxn_std": 6, "city_alias": "Wellington", "card_type": "Amex", "state": "FL", "transaction_radius": 25, "account_number": "346501985893320", "lat": 26.76669219621034, "trxn_mean": 38}, {"city": "Cape Coral", "long": -81.86716786637703, "account_id": 206, "cvv": "460", "expiration_date": "1/2024", "trxn_std": 5, "city_alias": "Fort Myers", "card_type": "Amex", "state": "FL", "transaction_radius": 33, "account_number": "374936055737855", "lat": 26.64550588262682, "trxn_mean": 11}, {"city": "Atlanta", "long": -84.36131620001048, "account_id": 207, "cvv": "294", "expiration_date": "7/2019", "trxn_std": 11, "city_alias": "North Highland Finance", "card_type": "Visa", "state": "GA", "transaction_radius": 29, "account_number": "4716866943121062", "lat": 33.85706934689987, "trxn_mean": 30}, {"city": "Brooklet", "long": -81.65818352800908, "account_id": 208, "cvv": "889", "expiration_date": "10/2022", "trxn_std": 1, "city_alias": "Hubert", "card_type": "MasterCard", "state": "GA", "transaction_radius": 13, "account_number": "2222081017257229", "lat": 32.3845232107946, "trxn_mean": 20}, {"city": "Miami", "long": -80.38065520328462, "account_id": 209, "cvv": "588", "expiration_date": "2/2019", "trxn_std": 3, "city_alias": "Flinternational Univ", "card_type": "MasterCard", "state": "FL", "transaction_radius": 8, "account_number": "2271276508832049", "lat": 25.76116647124438, "trxn_mean": 18}, {"city": "Bogart", "long": -83.53961767355884, "account_id": 210, "cvv": "252", "expiration_date": "12/2020", "trxn_std": 2, "city_alias": "Bogart", "card_type": "Amex", "state": "GA", "transaction_radius": 5, "account_number": "348298588989625", "lat": 33.94418130512634, "trxn_mean": 11}, {"city": "Pembroke Pines", "long": -80.30130674566884, "account_id": 211, "cvv": "609", "expiration_date": "2/2022", "trxn_std": 15, "city_alias": "South Florida", "card_type": "Discover", "state": "FL", "transaction_radius": 4, "account_number": "6011512884630219", "lat": 26.002760261831042, "trxn_mean": 38}, {"city": "Jensen Beach", "long": -80.25298359575264, "account_id": 212, "cvv": "214", "expiration_date": "5/2021", "trxn_std": 9, "city_alias": "Ocean Brz Pk", "card_type": "Visa", "state": "FL", "transaction_radius": 31, "account_number": "4024007150029659", "lat": 27.35578754877066, "trxn_mean": 30}, {"city": "Coconut Creek", "long": -80.18392561861387, "account_id": 213, "cvv": "633", "expiration_date": "1/2023", "trxn_std": 12, "city_alias": "Coconutcreek", "card_type": "Discover", "state": "FL", "transaction_radius": 27, "account_number": "6011169498629978", "lat": 26.24684657764987, "trxn_mean": 24}, {"city": "Tiger", "long": -83.42808816905702, "account_id": 214, "cvv": "179", "expiration_date": "5/2024", "trxn_std": 18, "city_alias": "Tiger", "card_type": "Visa", "state": "GA", "transaction_radius": 3, "account_number": "4916809048035066", "lat": 34.842225633655396, "trxn_mean": 35}, {"city": "Miami", "long": -80.3737294918716, "account_id": 215, "cvv": "796", "expiration_date": "10/2019", "trxn_std": 10, "city_alias": "Richmond Heights", "card_type": "MasterCard", "state": "FL", "transaction_radius": 35, "account_number": "2314022784231301", "lat": 25.636348940530578, "trxn_mean": 35}, {"city": "Bolingbroke", "long": -83.7976097690537, "account_id": 216, "cvv": "638", "expiration_date": "2/2024", "trxn_std": 4, "city_alias": "Bolingbroke", "card_type": "Discover", "state": "GA", "transaction_radius": 37, "account_number": "6011911039651304", "lat": 32.94203157801366, "trxn_mean": 20}, {"city": "Fort Oglethorpe", "long": -85.29101242741854, "account_id": 217, "cvv": "655", "expiration_date": "10/2019", "trxn_std": 1, "city_alias": "Rossville", "card_type": "Discover", "state": "GA", "transaction_radius": 7, "account_number": "6011903783119901", "lat": 34.97813332133351, "trxn_mean": 14}, {"city": "Bradenton Beach", "long": -82.69432427994933, "account_id": 218, "cvv": "620", "expiration_date": "1/2022", "trxn_std": 1, "city_alias": "Bradenton Bch", "card_type": "Amex", "state": "FL", "transaction_radius": 17, "account_number": "340749404576531", "lat": 27.47323080083396, "trxn_mean": 22}, {"city": "Oakfield", "long": -83.96390952780652, "account_id": 219, "cvv": "312", "expiration_date": "8/2020", "trxn_std": 1, "city_alias": "Oakfield", "card_type": "Diners", "state": "GA", "transaction_radius": 26, "account_number": "38850489693741", "lat": 31.78089364815609, "trxn_mean": 1}, {"city": "Long Key", "long": -80.81886570884416, "account_id": 220, "cvv": "077", "expiration_date": "3/2024", "trxn_std": 1, "city_alias": "Long Key", "card_type": "MasterCard", "state": "FL", "transaction_radius": 28, "account_number": "2720391849383490", "lat": 24.81908268802562, "trxn_mean": 2}, {"city": "Dunnellon", "long": -82.45599035662798, "account_id": 221, "cvv": "397", "expiration_date": "8/2019", "trxn_std": 10, "city_alias": "Citrus Springs", "card_type": "Discover", "state": "FL", "transaction_radius": 12, "account_number": "6011822045268399", "lat": 29.044137748925692, "trxn_mean": 28}, {"city": "Fort Myers Beach", "long": -81.93374256097614, "account_id": 222, "cvv": "809", "expiration_date": "10/2024", "trxn_std": 8, "city_alias": "Ft Myers Bch", "card_type": "Amex", "state": "FL", "transaction_radius": 4, "account_number": "370538579890113", "lat": 26.443771213351827, "trxn_mean": 30}, {"city": "Sun City Center", "long": -82.35681146715174, "account_id": 223, "cvv": "714", "expiration_date": "4/2020", "trxn_std": 3, "city_alias": "Ruskin", "card_type": "Diners", "state": "FL", "transaction_radius": 20, "account_number": "38819453112707", "lat": 27.712755868761125, "trxn_mean": 7}, {"city": "Port Charlotte", "long": -82.09557836325742, "account_id": 224, "cvv": "627", "expiration_date": "5/2023", "trxn_std": 2, "city_alias": "Pt Charlotte", "card_type": "MasterCard", "state": "FL", "transaction_radius": 9, "account_number": "2720868086081192", "lat": 26.97091360444604, "trxn_mean": 12}, {"city": "Bristol", "long": -84.97073750042554, "account_id": 225, "cvv": "916", "expiration_date": "12/2020", "trxn_std": 5, "city_alias": "Bristol", "card_type": "Amex", "state": "FL", "transaction_radius": 5, "account_number": "372094308193179", "lat": 30.427115360850486, "trxn_mean": 13}, {"city": "Ellijay", "long": -84.48725986042572, "account_id": 226, "cvv": "324", "expiration_date": "10/2020", "trxn_std": 1, "city_alias": "East Ellijay", "card_type": "Visa", "state": "GA", "transaction_radius": 19, "account_number": "4556094217219909", "lat": 34.68983060570758, "trxn_mean": 3}, {"city": "Mims", "long": -80.84965137584317, "account_id": 227, "cvv": "444", "expiration_date": "3/2021", "trxn_std": 8, "city_alias": "Mims", "card_type": "MasterCard", "state": "FL", "transaction_radius": 36, "account_number": "2720455416106517", "lat": 28.6602933879736, "trxn_mean": 23}, {"city": "Ludowici", "long": -81.73721695810339, "account_id": 228, "cvv": "141", "expiration_date": "6/2024", "trxn_std": 9, "city_alias": "Ludowici", "card_type": "Diners", "state": "GA", "transaction_radius": 32, "account_number": "30082107127740", "lat": 31.702969685773812, "trxn_mean": 18}, {"city": "Ball Ground", "long": -84.3729199986441, "account_id": 229, "cvv": "816", "expiration_date": "7/2021", "trxn_std": 12, "city_alias": "Ball Ground", "card_type": "Discover", "state": "GA", "transaction_radius": 22, "account_number": "6011824201841209", "lat": 34.34236706545141, "trxn_mean": 40}, {"city": "Crestview", "long": -86.56783488116506, "account_id": 230, "cvv": "084", "expiration_date": "9/2020", "trxn_std": 3, "city_alias": "Crestview", "card_type": "MasterCard", "state": "FL", "transaction_radius": 35, "account_number": "5535764266467848", "lat": 30.75913919990089, "trxn_mean": 11}, {"city": "Key Largo", "long": -80.274704587669, "account_id": 231, "cvv": "197", "expiration_date": "7/2023", "trxn_std": 12, "city_alias": "Ocean Reef Club", "card_type": "Discover", "state": "FL", "transaction_radius": 37, "account_number": "6011366489494426", "lat": 25.31086106177689, "trxn_mean": 31}, {"city": "Wesley Chapel", "long": -82.36900411382331, "account_id": 232, "cvv": "832", "expiration_date": "3/2022", "trxn_std": 10, "city_alias": "Wesley Chapel", "card_type": "Amex", "state": "FL", "transaction_radius": 28, "account_number": "377976843106697", "lat": 28.188011970546732, "trxn_mean": 24}, {"city": "Adrian", "long": -82.59430889164874, "account_id": 233, "cvv": "245", "expiration_date": "6/2024", "trxn_std": 8, "city_alias": "Adrian", "card_type": "Diners", "state": "GA", "transaction_radius": 30, "account_number": "30344211361825", "lat": 32.5358415038985, "trxn_mean": 34}, {"city": "Horseshoe Beach", "long": -83.28367920650903, "account_id": 234, "cvv": "728", "expiration_date": "1/2021", "trxn_std": 5, "city_alias": "Horseshoe Bch", "card_type": "Diners", "state": "FL", "transaction_radius": 12, "account_number": "38352825288872", "lat": 29.443685251764443, "trxn_mean": 16}, {"city": "Homer", "long": -83.49401304994636, "account_id": 235, "cvv": "831", "expiration_date": "2/2019", "trxn_std": 4, "city_alias": "Homer", "card_type": "Amex", "state": "GA", "transaction_radius": 25, "account_number": "373530347844339", "lat": 34.33863054863422, "trxn_mean": 37}, {"city": "Smithville", "long": -84.24702692361441, "account_id": 236, "cvv": "819", "expiration_date": "2/2021", "trxn_std": 6, "city_alias": "Smithville", "card_type": "Amex", "state": "GA", "transaction_radius": 5, "account_number": "341304491367755", "lat": 31.89557515911321, "trxn_mean": 15}, {"city": "Miami", "long": -80.36031404446892, "account_id": 237, "cvv": "270", "expiration_date": "5/2023", "trxn_std": 6, "city_alias": "Doral", "card_type": "Discover", "state": "FL", "transaction_radius": 28, "account_number": "6011689138930262", "lat": 25.81458638829677, "trxn_mean": 17}, {"city": "Wildwood", "long": -82.03394876561906, "account_id": 238, "cvv": "408", "expiration_date": "4/2019", "trxn_std": 15, "city_alias": "Wildwood", "card_type": "Discover", "state": "FL", "transaction_radius": 24, "account_number": "6011553593736806", "lat": 28.87015878518488, "trxn_mean": 32}, {"city": "Lady Lake", "long": -81.91804249974444, "account_id": 239, "cvv": "864", "expiration_date": "3/2020", "trxn_std": 9, "city_alias": "The Villages", "card_type": "Diners", "state": "FL", "transaction_radius": 14, "account_number": "30075984185302", "lat": 28.92246491055909, "trxn_mean": 26}, {"city": "Omega", "long": -83.59855454248313, "account_id": 240, "cvv": "767", "expiration_date": "9/2021", "trxn_std": 2, "city_alias": "Omega", "card_type": "MasterCard", "state": "GA", "transaction_radius": 9, "account_number": "5534685677187736", "lat": 31.346021015540604, "trxn_mean": 31}, {"city": "Pensacola", "long": -87.42237145651362, "account_id": 241, "cvv": "779", "expiration_date": "5/2024", "trxn_std": 3, "city_alias": "Perdido Key", "card_type": "Discover", "state": "FL", "transaction_radius": 21, "account_number": "6011638523406602", "lat": 30.308508586075412, "trxn_mean": 18}, {"city": "Saint Petersburg", "long": -82.74204443077828, "account_id": 242, "cvv": "566", "expiration_date": "6/2019", "trxn_std": 6, "city_alias": "S Pasadena", "card_type": "Diners", "state": "FL", "transaction_radius": 15, "account_number": "30311460660843", "lat": 27.762026385740217, "trxn_mean": 11}, {"city": "Fort Oglethorpe", "long": -85.2810992397906, "account_id": 243, "cvv": "693", "expiration_date": "12/2021", "trxn_std": 13, "city_alias": "Rossville", "card_type": "Amex", "state": "GA", "transaction_radius": 12, "account_number": "373299779978805", "lat": 34.97822692854474, "trxn_mean": 37}, {"city": "North Fort Myers", "long": -81.88493324601423, "account_id": 244, "cvv": "351", "expiration_date": "6/2024", "trxn_std": 18, "city_alias": "Ft Myers", "card_type": "Discover", "state": "FL", "transaction_radius": 20, "account_number": "6011620099817180", "lat": 26.672225381642065, "trxn_mean": 37}, {"city": "Winter Haven", "long": -81.7067171420358, "account_id": 245, "cvv": "812", "expiration_date": "11/2022", "trxn_std": 14, "city_alias": "Winter Hvn", "card_type": "Diners", "state": "FL", "transaction_radius": 23, "account_number": "38555359480729", "lat": 28.074754818748126, "trxn_mean": 37}, {"city": "Atlantic Beach", "long": -81.41328969462194, "account_id": 246, "cvv": "093", "expiration_date": "8/2024", "trxn_std": 3, "city_alias": "Atlantic Bch", "card_type": "Diners", "state": "FL", "transaction_radius": 36, "account_number": "30382739643738", "lat": 30.33936826600386, "trxn_mean": 10}, {"city": "Harrison", "long": -82.73012205654051, "account_id": 247, "cvv": "951", "expiration_date": "11/2023", "trxn_std": 1, "city_alias": "Harrison", "card_type": "Discover", "state": "GA", "transaction_radius": 13, "account_number": "6011682386597354", "lat": 32.821052187840614, "trxn_mean": 7}, {"city": "Summerland Key", "long": -81.43968890107965, "account_id": 248, "cvv": "209", "expiration_date": "3/2021", "trxn_std": 4, "city_alias": "Lower Sugarloaf Key", "card_type": "MasterCard", "state": "FL", "transaction_radius": 28, "account_number": "2227195299302050", "lat": 24.65647637836609, "trxn_mean": 20}, {"city": "Hallandale", "long": -80.15346947763017, "account_id": 249, "cvv": "591", "expiration_date": "12/2023", "trxn_std": 11, "city_alias": "Hallandale Beach", "card_type": "MasterCard", "state": "FL", "transaction_radius": 2, "account_number": "2660299336932012", "lat": 25.976183807180625, "trxn_mean": 25}, {"city": "Largo", "long": -82.78217550850121, "account_id": 250, "cvv": "757", "expiration_date": "10/2022", "trxn_std": 4, "city_alias": "Seminole", "card_type": "Amex", "state": "FL", "transaction_radius": 12, "account_number": "373470202657510", "lat": 27.890537390345028, "trxn_mean": 21}, {"city": "Matthews", "long": -82.27094721530221, "account_id": 251, "cvv": "370", "expiration_date": "12/2023", "trxn_std": 13, "city_alias": "Noah", "card_type": "MasterCard", "state": "GA", "transaction_radius": 15, "account_number": "2720229689484756", "lat": 33.21511580079967, "trxn_mean": 33}, {"city": "North Miami Beach", "long": -80.13413515712746, "account_id": 252, "cvv": "338", "expiration_date": "1/2021", "trxn_std": 5, "city_alias": "Aventura", "card_type": "Amex", "state": "FL", "transaction_radius": 11, "account_number": "340255279385743", "lat": 25.951399167429145, "trxn_mean": 14}, {"city": "Fort Lauderdale", "long": -80.14231546096939, "account_id": 253, "cvv": "006", "expiration_date": "7/2023", "trxn_std": 6, "city_alias": "P E Chevron Cs", "card_type": "Diners", "state": "FL", "transaction_radius": 7, "account_number": "38304604361107", "lat": 26.127405002558245, "trxn_mean": 19}, {"city": "Tampa", "long": -82.57486045028821, "account_id": 254, "cvv": "405", "expiration_date": "7/2023", "trxn_std": 3, "city_alias": "Home Shopping Club", "card_type": "Visa", "state": "FL", "transaction_radius": 13, "account_number": "4486263719051509", "lat": 28.00325684218362, "trxn_mean": 27}, {"city": "Sydney", "long": -82.20232033232772, "account_id": 255, "cvv": "217", "expiration_date": "12/2023", "trxn_std": 5, "city_alias": "Sydney", "card_type": "Diners", "state": "FL", "transaction_radius": 38, "account_number": "30210584008337", "lat": 27.95839093117379, "trxn_mean": 13}, {"city": "Gracewood", "long": -82.0162307062939, "account_id": 256, "cvv": "573", "expiration_date": "11/2019", "trxn_std": 8, "city_alias": "Gracewood", "card_type": "Amex", "state": "GA", "transaction_radius": 40, "account_number": "343466028738259", "lat": 33.361357548786344, "trxn_mean": 34}, {"city": "Hawkinsville", "long": -83.47714078180034, "account_id": 257, "cvv": "401", "expiration_date": "5/2020", "trxn_std": 6, "city_alias": "Hville", "card_type": "Diners", "state": "GA", "transaction_radius": 17, "account_number": "30073955641759", "lat": 32.2888793661855, "trxn_mean": 40}, {"city": "Panama City", "long": -85.6124925397084, "account_id": 258, "cvv": "189", "expiration_date": "6/2023", "trxn_std": 2, "city_alias": "Tyndall AFB", "card_type": "Amex", "state": "FL", "transaction_radius": 26, "account_number": "370130529710227", "lat": 30.074962130963836, "trxn_mean": 18}, {"city": "Lochloosa", "long": -82.09550441142119, "account_id": 259, "cvv": "749", "expiration_date": "1/2022", "trxn_std": 1, "city_alias": "Lochloosa", "card_type": "Discover", "state": "FL", "transaction_radius": 39, "account_number": "6011080782375857", "lat": 29.5067383999309, "trxn_mean": 33}, {"city": "Millen", "long": -81.95420911633245, "account_id": 260, "cvv": "062", "expiration_date": "5/2024", "trxn_std": 2, "city_alias": "Birdsville", "card_type": "Discover", "state": "GA", "transaction_radius": 28, "account_number": "6011289583314177", "lat": 32.7991100360492, "trxn_mean": 25}, {"city": "Eastman", "long": -83.17247566079617, "account_id": 261, "cvv": "517", "expiration_date": "5/2019", "trxn_std": 8, "city_alias": "Eastman", "card_type": "Visa", "state": "GA", "transaction_radius": 24, "account_number": "4486932497128867", "lat": 32.20274248393134, "trxn_mean": 22}, {"city": "Mitchell", "long": -82.81160374537713, "account_id": 262, "cvv": "905", "expiration_date": "3/2022", "trxn_std": 9, "city_alias": "Shoals", "card_type": "MasterCard", "state": "GA", "transaction_radius": 37, "account_number": "2269943020283092", "lat": 33.25349254388277, "trxn_mean": 29}, {"city": "West Palm Beach", "long": -80.04828639706928, "account_id": 263, "cvv": "778", "expiration_date": "3/2022", "trxn_std": 1, "city_alias": "Palm Bch Shrs", "card_type": "Amex", "state": "FL", "transaction_radius": 25, "account_number": "348195477216112", "lat": 26.7104525943902, "trxn_mean": 9}, {"city": "North Port", "long": -82.2404605724064, "account_id": 264, "cvv": "082", "expiration_date": "6/2020", "trxn_std": 1, "city_alias": "No Port", "card_type": "Diners", "state": "FL", "transaction_radius": 30, "account_number": "38827156249528", "lat": 27.050643581479484, "trxn_mean": 15}, {"city": "F M", "long": -81.86734159285182, "account_id": 265, "cvv": "544", "expiration_date": "8/2023", "trxn_std": 5, "city_alias": "F M", "card_type": "MasterCard", "state": "FL", "transaction_radius": 31, "account_number": "5182388479086744", "lat": 26.64554280065674, "trxn_mean": 35}, {"city": "Boynton Beach", "long": -80.04596139436319, "account_id": 266, "cvv": "519", "expiration_date": "1/2022", "trxn_std": 3, "city_alias": "Briny Breezes", "card_type": "MasterCard", "state": "FL", "transaction_radius": 38, "account_number": "2251176713608883", "lat": 26.50357852934735, "trxn_mean": 19}, {"city": "Malabar", "long": -80.57075747816145, "account_id": 267, "cvv": "869", "expiration_date": "3/2019", "trxn_std": 4, "city_alias": "Valkaria", "card_type": "Discover", "state": "FL", "transaction_radius": 23, "account_number": "6011024722943820", "lat": 27.998626811848535, "trxn_mean": 13}, {"city": "Haddock", "long": -83.42424551994444, "account_id": 268, "cvv": "381", "expiration_date": "6/2023", "trxn_std": 1, "city_alias": "Haddock", "card_type": "Discover", "state": "GA", "transaction_radius": 17, "account_number": "6011634278829387", "lat": 33.02751124385464, "trxn_mean": 2}, {"city": "Hallandale", "long": -80.1337526628249, "account_id": 269, "cvv": "971", "expiration_date": "5/2024", "trxn_std": 5, "city_alias": "Golden Isles", "card_type": "MasterCard", "state": "FL", "transaction_radius": 36, "account_number": "2223135867042625", "lat": 25.985270535997184, "trxn_mean": 15}, {"city": "Tallevast", "long": -82.53790624507589, "account_id": 270, "cvv": "415", "expiration_date": "1/2020", "trxn_std": 3, "city_alias": "Tallevast", "card_type": "Amex", "state": "FL", "transaction_radius": 9, "account_number": "370325050920589", "lat": 27.396685591061036, "trxn_mean": 34}, {"city": "Green Cove Springs", "long": -81.67308188623552, "account_id": 271, "cvv": "945", "expiration_date": "12/2024", "trxn_std": 17, "city_alias": "Green Cove Springs", "card_type": "Diners", "state": "FL", "transaction_radius": 10, "account_number": "30190417252098", "lat": 29.98693647860315, "trxn_mean": 40}, {"city": "Miami", "long": -80.15737914541128, "account_id": 272, "cvv": "223", "expiration_date": "8/2021", "trxn_std": 11, "city_alias": "North Miami Beach", "card_type": "MasterCard", "state": "FL", "transaction_radius": 1, "account_number": "2262616106242177", "lat": 25.928024224851903, "trxn_mean": 36}, {"city": "Eaton Park", "long": -81.9026537242659, "account_id": 273, "cvv": "838", "expiration_date": "8/2021", "trxn_std": 3, "city_alias": "Eaton Park", "card_type": "Amex", "state": "FL", "transaction_radius": 25, "account_number": "378039386405288", "lat": 28.013696437908067, "trxn_mean": 7}, {"city": "Clarcona", "long": -81.49440588929383, "account_id": 274, "cvv": "094", "expiration_date": "4/2024", "trxn_std": 2, "city_alias": "Clarcona", "card_type": "Diners", "state": "FL", "transaction_radius": 32, "account_number": "30059963523790", "lat": 28.620515706512915, "trxn_mean": 38}, {"city": "Marietta", "long": -84.49977226036347, "account_id": 275, "cvv": "841", "expiration_date": "5/2022", "trxn_std": 12, "city_alias": "Dobbins AFB", "card_type": "Diners", "state": "GA", "transaction_radius": 38, "account_number": "30184597247820", "lat": 33.91384631482471, "trxn_mean": 40}, {"city": "Holiday", "long": -82.73451083736062, "account_id": 276, "cvv": "746", "expiration_date": "4/2023", "trxn_std": 2, "city_alias": "Tarpon Springs", "card_type": "Diners", "state": "FL", "transaction_radius": 9, "account_number": "30168259454782", "lat": 28.192895772449237, "trxn_mean": 6}, {"city": "Apollo Beach", "long": -82.41252709840143, "account_id": 277, "cvv": "946", "expiration_date": "12/2023", "trxn_std": 2, "city_alias": "Ruskin", "card_type": "Amex", "state": "FL", "transaction_radius": 8, "account_number": "349853348522261", "lat": 27.768098591303858, "trxn_mean": 23}, {"city": "Campbellton", "long": -85.39718518227969, "account_id": 278, "cvv": "222", "expiration_date": "11/2024", "trxn_std": 2, "city_alias": "Campbellton", "card_type": "Amex", "state": "FL", "transaction_radius": 36, "account_number": "347831940129935", "lat": 30.944425254183578, "trxn_mean": 7}, {"city": "Atlanta", "long": -84.3683070515615, "account_id": 279, "cvv": "408", "expiration_date": "5/2023", "trxn_std": 8, "city_alias": "Sandy Spgs", "card_type": "MasterCard", "state": "GA", "transaction_radius": 6, "account_number": "2589641400350282", "lat": 33.925421608197304, "trxn_mean": 38}, {"city": "Jacksonville", "long": -81.40091566216041, "account_id": 280, "cvv": "856", "expiration_date": "1/2024", "trxn_std": 4, "city_alias": "Jax Bch", "card_type": "Diners", "state": "FL", "transaction_radius": 5, "account_number": "30215402062036", "lat": 30.288991608891155, "trxn_mean": 11}, {"city": "Anna Maria", "long": -82.72839231141516, "account_id": 281, "cvv": "891", "expiration_date": "10/2019", "trxn_std": 5, "city_alias": "Anna Maria", "card_type": "MasterCard", "state": "FL", "transaction_radius": 4, "account_number": "2228853868655303", "lat": 27.526044614916273, "trxn_mean": 25}, {"city": "Largo", "long": -82.811994724419, "account_id": 282, "cvv": "681", "expiration_date": "3/2021", "trxn_std": 8, "city_alias": "Belleair Bluffs", "card_type": "Discover", "state": "FL", "transaction_radius": 27, "account_number": "6011876647700316", "lat": 27.916449744422412, "trxn_mean": 17}, {"city": "New Port Richey", "long": -82.72413943260786, "account_id": 283, "cvv": "923", "expiration_date": "9/2023", "trxn_std": 1, "city_alias": "Seven Springs", "card_type": "Discover", "state": "FL", "transaction_radius": 14, "account_number": "6011736482362038", "lat": 28.249166969098937, "trxn_mean": 7}, {"city": "Lynn Haven", "long": -85.65319171650944, "account_id": 284, "cvv": "062", "expiration_date": "3/2024", "trxn_std": 5, "city_alias": "Lynn Haven", "card_type": "MasterCard", "state": "FL", "transaction_radius": 18, "account_number": "2593915051598512", "lat": 30.250457274622725, "trxn_mean": 14}, {"city": "Swainsboro", "long": -82.33877763553146, "account_id": 285, "cvv": "408", "expiration_date": "5/2022", "trxn_std": 6, "city_alias": "Covena", "card_type": "Visa", "state": "GA", "transaction_radius": 7, "account_number": "4486381323759117", "lat": 32.592369331728285, "trxn_mean": 24}, {"city": "Jacksonville", "long": -81.39110345651979, "account_id": 286, "cvv": "042", "expiration_date": "2/2019", "trxn_std": 12, "city_alias": "Jacksonville Beach", "card_type": "Diners", "state": "FL", "transaction_radius": 37, "account_number": "30309844757376", "lat": 30.2793099172839, "trxn_mean": 24}, {"city": "Fort Lauderdale", "long": -80.26162582706907, "account_id": 287, "cvv": "604", "expiration_date": "12/2024", "trxn_std": 16, "city_alias": "City Of Sunrise", "card_type": "Discover", "state": "FL", "transaction_radius": 38, "account_number": "6011085853440324", "lat": 26.171897232579415, "trxn_mean": 39}, {"city": "Chula", "long": -83.55239029978281, "account_id": 288, "cvv": "602", "expiration_date": "3/2021", "trxn_std": 8, "city_alias": "Chula", "card_type": "Diners", "state": "GA", "transaction_radius": 29, "account_number": "36747327816546", "lat": 31.554614576299397, "trxn_mean": 15}, {"city": "Gulf Hammock", "long": -82.72838356913437, "account_id": 289, "cvv": "951", "expiration_date": "10/2020", "trxn_std": 2, "city_alias": "Gulf Hammock", "card_type": "Discover", "state": "FL", "transaction_radius": 13, "account_number": "6011315346405901", "lat": 29.24761202305378, "trxn_mean": 3}, {"city": "Newborn", "long": -83.70120871100814, "account_id": 290, "cvv": "384", "expiration_date": "4/2023", "trxn_std": 2, "city_alias": "Newborn", "card_type": "Visa", "state": "GA", "transaction_radius": 35, "account_number": "4716165748659065", "lat": 33.52199274784022, "trxn_mean": 20}, {"city": "Enigma", "long": -83.33411933553614, "account_id": 291, "cvv": "364", "expiration_date": "8/2023", "trxn_std": 18, "city_alias": "Enigma", "card_type": "Discover", "state": "GA", "transaction_radius": 32, "account_number": "6011401521381875", "lat": 31.407908919286754, "trxn_mean": 40}, {"city": "Panacea", "long": -84.42603158250371, "account_id": 292, "cvv": "803", "expiration_date": "11/2022", "trxn_std": 7, "city_alias": "Ochlockonee", "card_type": "MasterCard", "state": "FL", "transaction_radius": 7, "account_number": "2679591179632884", "lat": 29.989942930945595, "trxn_mean": 32}, {"city": "Eastanollee", "long": -83.2604527673032, "account_id": 293, "cvv": "969", "expiration_date": "9/2024", "trxn_std": 5, "city_alias": "Eastanollee", "card_type": "MasterCard", "state": "GA", "transaction_radius": 8, "account_number": "2228631276525627", "lat": 34.52529462454934, "trxn_mean": 14}, {"city": "Valdosta", "long": -83.31549214343922, "account_id": 294, "cvv": "674", "expiration_date": "7/2020", "trxn_std": 9, "city_alias": "Remerton", "card_type": "Visa", "state": "GA", "transaction_radius": 6, "account_number": "4916689413325809", "lat": 30.83904150852197, "trxn_mean": 24}, {"city": "Wildwood", "long": -85.40609239134288, "account_id": 295, "cvv": "098", "expiration_date": "4/2022", "trxn_std": 2, "city_alias": "Wildwood", "card_type": "Visa", "state": "GA", "transaction_radius": 19, "account_number": "4716644435348620", "lat": 34.96833860007716, "trxn_mean": 5}, {"city": "Butler", "long": -84.2431876522116, "account_id": 296, "cvv": "134", "expiration_date": "11/2022", "trxn_std": 16, "city_alias": "Butler", "card_type": "Amex", "state": "GA", "transaction_radius": 11, "account_number": "377888456495871", "lat": 32.55215013786796, "trxn_mean": 32}, {"city": "Royal Palm Beach", "long": -80.2355918324968, "account_id": 297, "cvv": "635", "expiration_date": "5/2023", "trxn_std": 4, "city_alias": "Royal Palm Beach", "card_type": "Amex", "state": "FL", "transaction_radius": 35, "account_number": "347194054471068", "lat": 26.703690705674724, "trxn_mean": 10}, {"city": "Key Colony Beach", "long": -81.02371951383543, "account_id": 298, "cvv": "110", "expiration_date": "2/2023", "trxn_std": 6, "city_alias": "Key Col Bch", "card_type": "Amex", "state": "FL", "transaction_radius": 38, "account_number": "341118008024489", "lat": 24.715946464, "trxn_mean": 12}, {"city": "Fort Lauderdale", "long": -80.33232074609549, "account_id": 299, "cvv": "447", "expiration_date": "9/2020", "trxn_std": 3, "city_alias": "Sw Ranches", "card_type": "Discover", "state": "FL", "transaction_radius": 14, "account_number": "6011789524484393", "lat": 26.053755807144242, "trxn_mean": 29}, {"city": "Bradenton", "long": -82.5952860878193, "account_id": 300, "cvv": "475", "expiration_date": "8/2020", "trxn_std": 3, "city_alias": "Bayshore Gardens", "card_type": "MasterCard", "state": "FL", "transaction_radius": 30, "account_number": "2229725568390531", "lat": 27.420374810400347, "trxn_mean": 9}, {"city": "Fort Oglethorpe", "long": -85.28103945316028, "account_id": 301, "cvv": "247", "expiration_date": "8/2019", "trxn_std": 14, "city_alias": "Rossville", "card_type": "Discover", "state": "GA", "transaction_radius": 16, "account_number": "6011769513079164", "lat": 34.978241675607, "trxn_mean": 31}, {"city": "Lake Mary", "long": -81.31270601361413, "account_id": 302, "cvv": "008", "expiration_date": "9/2023", "trxn_std": 8, "city_alias": "Lake Mary", "card_type": "Amex", "state": "FL", "transaction_radius": 18, "account_number": "348385686116779", "lat": 28.76395437238716, "trxn_mean": 38}, {"city": "Cape Coral", "long": -82.05604658945686, "account_id": 303, "cvv": "529", "expiration_date": "6/2023", "trxn_std": 1, "city_alias": "Matlacha Isle", "card_type": "Visa", "state": "FL", "transaction_radius": 16, "account_number": "4532783825692387", "lat": 26.635150813410284, "trxn_mean": 3}, {"city": "Juliette", "long": -83.79514095971525, "account_id": 304, "cvv": "041", "expiration_date": "8/2020", "trxn_std": 1, "city_alias": "Juliette", "card_type": "Diners", "state": "GA", "transaction_radius": 2, "account_number": "36994147367835", "lat": 33.11231879393859, "trxn_mean": 9}, {"city": "Malabar", "long": -80.56046975394044, "account_id": 305, "cvv": "374", "expiration_date": "8/2021", "trxn_std": 5, "city_alias": "Grant Valkaria", "card_type": "Amex", "state": "FL", "transaction_radius": 32, "account_number": "377185385823202", "lat": 27.998629555558786, "trxn_mean": 19}, {"city": "Alapaha", "long": -83.22776038988002, "account_id": 306, "cvv": "722", "expiration_date": "6/2021", "trxn_std": 16, "city_alias": "Alapaha", "card_type": "Discover", "state": "GA", "transaction_radius": 20, "account_number": "6011208059564339", "lat": 31.38999150237229, "trxn_mean": 35}, {"city": "Pembroke", "long": -81.62700173306641, "account_id": 307, "cvv": "844", "expiration_date": "6/2022", "trxn_std": 1, "city_alias": "Nevils", "card_type": "Diners", "state": "GA", "transaction_radius": 17, "account_number": "30381395523044", "lat": 32.13103923348541, "trxn_mean": 21}, {"city": "Wewahitchka", "long": -85.20533339283406, "account_id": 308, "cvv": "200", "expiration_date": "3/2023", "trxn_std": 8, "city_alias": "Wewahitchka", "card_type": "Amex", "state": "FL", "transaction_radius": 12, "account_number": "347952827501374", "lat": 30.107741186273003, "trxn_mean": 17}, {"city": "Oglethorpe", "long": -84.06595657783063, "account_id": 309, "cvv": "242", "expiration_date": "5/2024", "trxn_std": 13, "city_alias": "Ogelthorpe", "card_type": "MasterCard", "state": "GA", "transaction_radius": 17, "account_number": "2654940524998558", "lat": 32.298864877229654, "trxn_mean": 25}, {"city": "Indian Rocks Beach", "long": -82.84318629247092, "account_id": 310, "cvv": "929", "expiration_date": "1/2020", "trxn_std": 6, "city_alias": "Belleair Bch", "card_type": "MasterCard", "state": "FL", "transaction_radius": 22, "account_number": "2226756696168369", "lat": 27.90337804905371, "trxn_mean": 35}, {"city": "Manchester", "long": -84.61494952454592, "account_id": 311, "cvv": "948", "expiration_date": "2/2021", "trxn_std": 7, "city_alias": "Manchester", "card_type": "Discover", "state": "GA", "transaction_radius": 11, "account_number": "6011846636288458", "lat": 32.85489383123021, "trxn_mean": 13}, {"city": "Shady Dale", "long": -83.58099403098188, "account_id": 312, "cvv": "096", "expiration_date": "8/2021", "trxn_std": 5, "city_alias": "Farrar", "card_type": "MasterCard", "state": "GA", "transaction_radius": 18, "account_number": "2223107728439696", "lat": 33.394738095214635, "trxn_mean": 15}, {"city": "Beverly Hills", "long": -82.45314452885998, "account_id": 313, "cvv": "313", "expiration_date": "12/2024", "trxn_std": 4, "city_alias": "Beverly Hills", "card_type": "Diners", "state": "FL", "transaction_radius": 6, "account_number": "36085582369277", "lat": 28.921988452574535, "trxn_mean": 7}, {"city": "Fernandina Beach", "long": -81.43990394576063, "account_id": 314, "cvv": "432", "expiration_date": "5/2019", "trxn_std": 9, "city_alias": "Five Points Hamilton", "card_type": "Discover", "state": "FL", "transaction_radius": 21, "account_number": "6011302733526325", "lat": 30.644577807108234, "trxn_mean": 17}, {"city": "Claxton", "long": -81.90902283073387, "account_id": 315, "cvv": "881", "expiration_date": "7/2024", "trxn_std": 1, "city_alias": "Claxton", "card_type": "Amex", "state": "GA", "transaction_radius": 10, "account_number": "371951811466734", "lat": 32.15655291260301, "trxn_mean": 8}, {"city": "Inverness", "long": -82.32662890113926, "account_id": 316, "cvv": "924", "expiration_date": "4/2024", "trxn_std": 5, "city_alias": "Inverness", "card_type": "Diners", "state": "FL", "transaction_radius": 29, "account_number": "36607929958486", "lat": 28.840465199218794, "trxn_mean": 16}, {"city": "Morriston", "long": -82.43304525126283, "account_id": 317, "cvv": "556", "expiration_date": "8/2023", "trxn_std": 8, "city_alias": "Morriston", "card_type": "Amex", "state": "FL", "transaction_radius": 14, "account_number": "374633477870790", "lat": 29.2865088254417, "trxn_mean": 40}, {"city": "Carnesville", "long": -83.24017850738066, "account_id": 318, "cvv": "566", "expiration_date": "6/2024", "trxn_std": 7, "city_alias": "Carnesville", "card_type": "Amex", "state": "GA", "transaction_radius": 37, "account_number": "340210022361863", "lat": 34.36484641263396, "trxn_mean": 40}, {"city": "Marietta", "long": -84.5140231804622, "account_id": 319, "cvv": "214", "expiration_date": "11/2021", "trxn_std": 9, "city_alias": "Atlanta Naval Air Station", "card_type": "Visa", "state": "GA", "transaction_radius": 17, "account_number": "4556437982708889", "lat": 33.93289641495774, "trxn_mean": 38}, {"city": "Attapulgus", "long": -84.47889380729437, "account_id": 320, "cvv": "338", "expiration_date": "5/2019", "trxn_std": 8, "city_alias": "Attapulgus", "card_type": "Discover", "state": "GA", "transaction_radius": 21, "account_number": "6011657313236318", "lat": 30.74413482043645, "trxn_mean": 16}, {"city": "Milledgeville", "long": -83.2271436320198, "account_id": 321, "cvv": "380", "expiration_date": "12/2023", "trxn_std": 7, "city_alias": "Mville", "card_type": "Amex", "state": "GA", "transaction_radius": 14, "account_number": "340539314914108", "lat": 33.08517985413345, "trxn_mean": 28}, {"city": "Jacksonville", "long": -81.65069599200139, "account_id": 322, "cvv": "297", "expiration_date": "9/2020", "trxn_std": 9, "city_alias": "Jacksonville", "card_type": "Diners", "state": "FL", "transaction_radius": 13, "account_number": "30117152636201", "lat": 30.337150456369862, "trxn_mean": 18}, {"city": "Atlanta", "long": -84.35665326063697, "account_id": 323, "cvv": "632", "expiration_date": "2/2019", "trxn_std": 7, "city_alias": "Tuxedo", "card_type": "Amex", "state": "GA", "transaction_radius": 22, "account_number": "345081652116389", "lat": 33.85119105258819, "trxn_mean": 19}, {"city": "Homerville", "long": -82.74223319722653, "account_id": 324, "cvv": "475", "expiration_date": "12/2020", "trxn_std": 3, "city_alias": "Homerville", "card_type": "Visa", "state": "GA", "transaction_radius": 35, "account_number": "4556359572552495", "lat": 31.031375198951963, "trxn_mean": 31}, {"city": "Glenwood", "long": -82.67455280304092, "account_id": 325, "cvv": "961", "expiration_date": "6/2021", "trxn_std": 8, "city_alias": "Glenwood", "card_type": "Amex", "state": "GA", "transaction_radius": 16, "account_number": "345404120584980", "lat": 32.17506340440176, "trxn_mean": 20}, {"city": "Saint Petersburg", "long": -82.74551453715509, "account_id": 326, "cvv": "054", "expiration_date": "11/2021", "trxn_std": 15, "city_alias": "St Petersburg Beach", "card_type": "MasterCard", "state": "FL", "transaction_radius": 9, "account_number": "2221377432821263", "lat": 27.737885898339623, "trxn_mean": 36}, {"city": "Miami", "long": -80.25842738868369, "account_id": 327, "cvv": "819", "expiration_date": "8/2024", "trxn_std": 6, "city_alias": "C Gables", "card_type": "Visa", "state": "FL", "transaction_radius": 31, "account_number": "4532649951353054", "lat": 25.75441928618178, "trxn_mean": 20}, {"city": "Sea Island", "long": -81.32662726341118, "account_id": 328, "cvv": "437", "expiration_date": "1/2021", "trxn_std": 18, "city_alias": "Brunswick", "card_type": "Visa", "state": "GA", "transaction_radius": 31, "account_number": "4532773879976174", "lat": 31.206720696961234, "trxn_mean": 38}, {"city": "Kennesaw", "long": -84.61046126267867, "account_id": 329, "cvv": "393", "expiration_date": "6/2024", "trxn_std": 1, "city_alias": "Kennesaw", "card_type": "Discover", "state": "GA", "transaction_radius": 28, "account_number": "6011759746025837", "lat": 34.01836596503872, "trxn_mean": 6}, {"city": "Palmetto", "long": -84.67449384467828, "account_id": 330, "cvv": "902", "expiration_date": "4/2022", "trxn_std": 9, "city_alias": "Palmetto", "card_type": "MasterCard", "state": "GA", "transaction_radius": 35, "account_number": "2236947173651666", "lat": 33.52272859122748, "trxn_mean": 19},